id,name,email,city,state,zip,birth_date,latitude,longitude,source,dayduration,age
1,Hudson Borer,borer-hudson@yahoo.com,Wood River,NE,68883,1986-12-12,40.7132,-98.526,Twitter,2681,38
2,Domenica Williamson,williamson-domenica@yahoo.com,Searsboro,IA,50242,1967-06-10,41.5813,-92.6991,Affiliate,2497,57
3,Lina Heaney,lina.heaney@yahoo.com,Sandstone,MN,55072,1961-12-18,46.1197,-92.8416,Facebook,2783,63
4,Arnold Adams,adams.arnold@gmail.com,Rye,CO,81069,1992-08-12,37.9203,-104.973,Google,2179,32
5,Dominique Leffler,leffler.dominique@hotmail.com,Beaver Dams,NY,14812,1974-04-20,42.349,-77.0567,Twitter,2713,50
6,Rene Muller,rene.muller@gmail.com,Morse,LA,70559,1983-03-27,30.1515,-92.4862,Google,3061,41
7,Roselyn Bosco,bosco.roselyn@hotmail.com,Leakesville,MS,39451,1996-01-19,31.2341,-88.5857,Facebook,2452,28
8,Aracely Jenkins,aracely.jenkins@gmail.com,Pittsburg,KS,66762,1973-06-05,37.4347,-94.6427,Facebook,2731,51
9,Anais Ward,ward.anais@gmail.com,Ida Grove,IA,51445,1999-10-16,42.2979,-95.4674,Twitter,2310,25
10,Tressa White,white.tressa@yahoo.com,Upper Sandusky,OH,43351,1968-01-13,40.8007,-83.2838,Google,2368,56
11,Lolita Schaefer,schaefer-lolita@hotmail.com,Pilot Mound,IA,50223,1982-08-20,42.1394,-93.9824,Facebook,2518,42
12,Ciara Larson,ciara-larson@hotmail.com,Florence,SD,57235,1982-12-16,44.9564,-97.2287,Facebook,2418,42
13,Mustafa Thiel,mustafa.thiel@hotmail.com,Santa Ysabel,CA,92070,1963-07-20,33.0817,-116.662,Facebook,2697,61
14,Lavonne Senger,senger.lavonne@yahoo.com,Chico,CA,95928,1963-09-22,39.6486,-121.934,Facebook,2428,61
15,Bertrand Romaguera,romaguera.bertrand@gmail.com,El Paso,AR,72045,2000-02-14,35.108,-92.0102,Twitter,2242,24
16,Khalid Pouros,khalid-pouros@yahoo.com,Greensboro,AL,36744,1961-09-16,32.7043,-87.5414,Google,3192,63
17,Lora Cronin,lora-cronin@gmail.com,Gold Beach,OR,97444,1990-02-16,42.5049,-124.188,Organic,2897,34
18,Arely Pollich,pollich-arely@yahoo.com,Portland,OR,97230,1990-06-27,45.5549,-122.528,Affiliate,2846,34
19,Wyman Kertzmann,wyman-kertzmann@gmail.com,Grants Pass,OR,97527,1975-07-23,42.3223,-123.324,Affiliate,2259,49
20,John Aufderhar,aufderhar.john@yahoo.com,Marne,IA,51552,1991-10-26,41.467,-95.1012,Affiliate,2311,33
21,Angela Botsford,angela-botsford@hotmail.com,Phillips,NE,68865,1999-07-17,40.9765,-98.1325,Twitter,2803,25
22,Jeromy Smith,jeromy.smith@yahoo.com,Napa,CA,94558,1967-02-16,38.5063,-122.188,Twitter,2689,57
23,Candida Kiehn,kiehn-candida@yahoo.com,Girard,GA,30426,1971-08-06,33.0855,-81.6764,Facebook,2855,53
24,Nya Weber,weber-nya@gmail.com,Cohasset,MN,55721,1971-01-13,47.1795,-93.6321,Facebook,2205,53
25,Araceli Stiedemann,stiedemann.araceli@yahoo.com,Fayetteville,AR,72701,1979-02-05,36.048,-94.2027,Twitter,3098,45
26,Dagmar Fay,dagmar.fay@gmail.com,Winnemucca,NV,89445,1962-07-20,41.4721,-118.346,Organic,3050,62
27,Kyler Abshire,kyler.abshire@yahoo.com,Arcadia,OH,44804,1989-09-27,41.1279,-83.536,Organic,2866,35
28,Keon Cartwright,keon-cartwright@hotmail.com,Baldwyn,MS,38824,1991-10-25,34.4326,-88.5703,Affiliate,2836,33
29,Broderick Lockman,broderick-lockman@gmail.com,Lancaster,OH,43130,1990-09-09,39.6955,-82.5027,Facebook,2203,34
30,Desiree Walsh,walsh-desiree@gmail.com,DeWitt,AR,72042,1988-02-23,34.3125,-91.2082,Affiliate,2983,36
31,Cleora Hilll,cleora.hilll@hotmail.com,Houston,MN,55943,1995-02-02,43.8069,-91.636,Affiliate,2136,29
32,Jayden Hamill,jayden.hamill@gmail.com,Pueblo,CO,81004,1967-05-23,37.9478,-104.878,Google,2540,57
33,Alphonso Quigley,alphonso-quigley@yahoo.com,Steamboat Springs,CO,80487,1997-04-20,40.3373,-106.798,Affiliate,2368,27
34,Emilie Goyette,goyette-emilie@yahoo.com,Amissville,VA,20106,1966-05-25,38.6569,-77.9759,Organic,2218,58
35,Chelsey Schuppe,schuppe-chelsey@hotmail.com,Sharon,WI,53585,1984-03-19,42.5617,-88.6775,Twitter,2255,40
36,Kaley Ziemann,ziemann-kaley@yahoo.com,Hoisington,KS,67544,1967-10-31,38.6232,-98.8225,Organic,2675,57
37,Jaleel Collins,jaleel.collins@gmail.com,Tucson,AZ,85742,1978-10-10,32.3736,-111.037,Facebook,2925,46
38,Cecilia Stark,cecilia.stark@hotmail.com,Hurricane,WV,25526,1981-12-16,38.4921,-82.0003,Facebook,3000,43
39,Andreanne Hills,andreanne-hills@yahoo.com,Edgerton,MN,56128,1988-04-26,43.9393,-96.1593,Organic,2504,36
40,Elyssa Wolf,wolf.elyssa@hotmail.com,Dale,TX,78616,1978-09-04,29.9959,-97.559,Google,2896,46
41,Bernadine Gorczany,bernadine.gorczany@hotmail.com,Waukee,IA,50263,1984-03-24,41.5396,-93.8748,Google,2452,40
42,Reyes Strosin,reyes-strosin@yahoo.com,Watertown,NY,13601,1992-05-23,44.1068,-75.9958,Google,2859,32
43,Chaya Volkman,volkman.chaya@hotmail.com,Dike,IA,50624,1962-09-14,42.4388,-92.6714,Twitter,2806,62
44,Carroll Kohler,carroll.kohler@hotmail.com,Mallard,IA,50562,1999-03-19,43.0246,-94.6294,Facebook,2957,25
45,Gilbert Abbott,abbott-gilbert@yahoo.com,Columbus Junction,IA,52738,1963-03-23,41.3221,-91.4749,Organic,3057,61
46,Kaleb Swaniawski,swaniawski-kaleb@gmail.com,Kalkaska,MI,49646,1996-02-13,44.854,-84.8771,Twitter,2206,28
47,Bradley Green,bradley.green@yahoo.com,Flagstaff,AZ,86004,1980-06-16,35.3371,-111.364,Organic,2572,44
48,Logan Weber,logan-weber@yahoo.com,Morrowville,KS,66958,1988-06-22,39.988,-97.1458,Organic,2633,36
49,Zane Koelpin,zane.koelpin@gmail.com,Reeds,MO,64859,1967-07-11,37.1383,-94.1122,Twitter,2336,57
50,Stacy Wisozk,wisozk.stacy@gmail.com,Fordville,ND,58231,1967-05-14,48.2384,-97.8694,Twitter,2572,57
51,Alvah Wilderman,wilderman.alvah@hotmail.com,Carrollton,MS,38917,1965-06-12,33.4934,-89.8907,Twitter,2546,59
52,Velma Little,velma-little@yahoo.com,Auburn,GA,30011,1982-10-24,34.0571,-83.8153,Google,2446,42
53,Nikolas Romaguera,nikolas.romaguera@yahoo.com,Pontotoc,MS,38863,1974-04-22,34.2721,-89.1858,Facebook,2345,50
54,Davin Stamm,stamm.davin@yahoo.com,Waterbury,NE,68785,1971-10-08,42.3241,-96.7454,Affiliate,2910,53
55,Holly Bayer,holly-bayer@gmail.com,Union Springs,AL,36089,1987-01-16,32.1412,-85.6383,Affiliate,2675,37
56,Seth Willms,willms.seth@gmail.com,Haxtun,CO,80731,1969-05-12,40.5975,-102.531,Google,2777,55
57,Jordy Haag,haag-jordy@yahoo.com,Kendrick,ID,83537,1979-11-13,46.5789,-116.538,Twitter,2581,45
58,Dawson Kovacek,kovacek-dawson@hotmail.com,Owensboro,KY,42301,1983-09-10,37.8206,-87.2487,Facebook,3173,41
59,Hugh Hahn,hahn.hugh@hotmail.com,Fort Garland,CO,81133,1966-07-26,37.423,-105.372,Organic,2947,58
60,Edgardo Hackett,edgardo-hackett@hotmail.com,Fort Gay,WV,25514,1996-10-31,38.1119,-82.5399,Twitter,2999,28
61,Lina Labadie,labadie.lina@gmail.com,Catawba,NC,28609,1984-03-28,35.6992,-81.0173,Google,3170,40
62,Angelica Zulauf,zulauf.angelica@hotmail.com,Saint Petersburg,FL,33702,1985-10-17,27.8721,-82.6132,Affiliate,2979,39
63,Delilah Stoltenberg,delilah-stoltenberg@yahoo.com,Spencer,IA,51301,1997-01-18,43.2109,-95.247,Organic,2288,27
64,Terrence Grimes,grimes-terrence@gmail.com,DeRuyter,NY,13052,1968-11-19,42.7235,-75.8565,Affiliate,2185,56
65,Arne O'Hara,arne-o-hara@gmail.com,Howes,SD,57748,1979-09-09,44.7004,-102.193,Facebook,2983,45
66,Gladys Dare,gladys-dare@gmail.com,Glenfield,NY,13343,1994-01-05,43.764,-75.3819,Twitter,3082,30
67,Keyon Stroman,stroman-keyon@yahoo.com,Chignik Lake,AK,99548,1987-12-10,56.2609,-158.702,Affiliate,2435,37
68,Colton Hauck,colton-hauck@yahoo.com,Rockport,IN,47635,1963-11-21,37.8902,-87.1323,Affiliate,3195,61
69,Anibal Hansen,hansen.anibal@yahoo.com,Moville,IA,51039,1969-10-06,42.3421,-96.0378,Facebook,2716,55
70,Maya Berge,maya-berge@hotmail.com,Ainsworth,NE,69210,1993-12-21,42.1363,-99.8663,Twitter,3142,31
71,Lillian Green,lillian-green@yahoo.com,Cody,WY,82414,1968-05-11,44.5004,-109.286,Affiliate,3163,56
72,Eula O'Connell,eula-connell-o@hotmail.com,Grand Ridge,FL,32442,1961-12-24,30.6044,-85.0278,Facebook,2789,63
73,Stan Hessel,stan-hessel@hotmail.com,Shelburne Falls,MA,1370,1968-08-06,42.5549,-72.6583,Organic,2380,56
74,Jarret Marvin,marvin-jarret@gmail.com,Rushville,IN,46173,1968-12-18,39.6294,-85.3744,Twitter,2175,56
75,Isobel Fadel,fadel.isobel@gmail.com,Winner,SD,57580,1994-11-21,43.1848,-100.033,Affiliate,2419,30
76,Amiya Considine,considine-amiya@yahoo.com,Noxapater,MS,39346,1970-05-01,32.9558,-89.0666,Google,2738,54
77,Felipe Wilkinson,felipe-wilkinson@hotmail.com,London,KY,40741,1988-03-08,37.1229,-83.9971,Organic,2554,36
78,Keenan Schaefer,schaefer.keenan@gmail.com,Three Forks,MT,59752,1993-09-17,45.8382,-111.496,Affiliate,3193,31
79,Palma Volkman,volkman.palma@gmail.com,Orlando,FL,32821,1990-03-15,28.4121,-81.4378,Google,2175,34
80,Wilhelm Willms,willms.wilhelm@gmail.com,Commerce,TX,75428,1992-01-06,33.2513,-95.8858,Twitter,2548,32
81,Curt Baumbach,baumbach-curt@hotmail.com,Arlington,WA,98223,1962-09-10,48.149,-122.137,Facebook,2598,62
82,Macy Olson,macy.olson@gmail.com,Siloam Springs,AR,72761,1971-09-20,36.2021,-94.431,Organic,3105,53
83,Theresa Kertzmann,kertzmann.theresa@hotmail.com,Chinook,MT,59523,1989-08-30,48.6053,-109.22,Facebook,3128,35
84,Dorris Frami,frami.dorris@hotmail.com,Peru,IN,46970,1963-03-08,40.8042,-86.014,Google,2634,61
85,Vernice Steuber,steuber-vernice@yahoo.com,Gill,MA,1354,1971-06-03,42.6392,-72.5028,Google,2452,53
86,Oda Brakus,oda-brakus@hotmail.com,Cottonwood,CA,96022,1981-06-22,40.296,-122.441,Twitter,2738,43
87,Heber Vandervort,heber.vandervort@hotmail.com,Klamath Falls,OR,97601,1983-09-24,42.168,-121.867,Google,2478,41
88,Breanne Schiller,breanne-schiller@gmail.com,Hoopa,CA,95546,1999-03-01,41.3503,-123.849,Google,2628,25
89,Durward Ledner,ledner.durward@hotmail.com,Brownsville,MN,55919,1989-07-31,43.5904,-91.3315,Affiliate,2920,35
90,Scarlett Beahan,scarlett.beahan@yahoo.com,Hot Springs,AR,71901,1991-09-02,34.5052,-93.007,Twitter,2726,33
91,Myrtis Labadie,myrtis.labadie@yahoo.com,Pecos,TX,79772,1973-01-19,31.3694,-103.583,Google,2413,51
92,Tatyana Steuber,tatyana-steuber@hotmail.com,Avon,SD,57315,1992-10-05,43.057,-97.9539,Twitter,2383,32
93,Broderick Wintheiser,wintheiser-broderick@yahoo.com,Wasilla,AK,99654,1961-01-25,61.3721,-150.098,Affiliate,2985,63
94,Armando Herzog,armando-herzog@hotmail.com,Madras,OR,97741,1972-06-19,44.7873,-120.935,Affiliate,2148,52
95,Aurelie Spinka,aurelie-spinka@gmail.com,Cheney,WA,99004,1960-06-05,47.4154,-117.777,Organic,2337,64
96,Ayden Heller,ayden-heller@yahoo.com,Hermitage,AR,71647,1963-05-08,33.2537,-92.1484,Organic,2489,61
97,Quentin Leannon,quentin.leannon@hotmail.com,Fresno,CA,93706,1999-05-18,36.6456,-120.003,Facebook,2953,25
98,Lucas Beer,lucas-beer@gmail.com,South Webster,OH,45682,1978-02-22,38.8234,-82.6755,Google,3052,46
99,Alicia Cormier,cormier.alicia@yahoo.com,Craigmont,ID,83523,1959-01-31,46.3318,-116.292,Organic,2704,65
100,Nels Heaney,heaney.nels@yahoo.com,Glenfield,NY,13343,1995-05-12,43.713,-75.4391,Organic,2758,29
101,Beryl Reichel,reichel.beryl@yahoo.com,Rich Hill,MO,64779,1964-01-09,38.0319,-94.2752,Twitter,2924,60
102,Kade Kub,kade-kub@hotmail.com,Clinton,MT,59825,1982-09-02,46.6588,-113.654,Facebook,2366,42
103,Jayce Hilpert,hilpert-jayce@yahoo.com,Buxton,ND,58218,1978-06-06,47.6128,-96.9682,Facebook,2833,46
104,Briana Kuphal,kuphal-briana@yahoo.com,Evensville,TN,37332,1991-06-11,35.5989,-84.8353,Twitter,2310,33
105,Carleton Effertz,carleton.effertz@gmail.com,Elk Creek,CA,95939,1966-06-09,39.6136,-122.571,Facebook,3002,58
106,Rosina O'Connell,rosina.connell.o@hotmail.com,Lizton,IN,46149,1979-06-02,39.8864,-86.5583,Google,3090,45
107,Verla O'Kon,verla.kon.o@gmail.com,Pocahontas,IA,50574,1986-02-23,42.7814,-94.8164,Affiliate,2590,38
108,Archibald Von,von-archibald@yahoo.com,Windom,TX,75492,1969-01-03,33.5097,-96.0324,Facebook,2789,55
109,Anais Dare,dare.anais@yahoo.com,Clinton,OH,44216,1962-08-26,40.9193,-81.5459,Google,2271,62
110,Alexanne Wisoky,wisoky-alexanne@yahoo.com,Brook,IN,47922,1967-10-29,40.8915,-87.29,Google,3097,57
111,Augustine Runolfsdottir,runolfsdottir.augustine@gmail.com,Bell City,LA,70630,1997-06-10,30.0178,-93.0878,Google,3097,27
112,Theresa Grant,theresa.grant@yahoo.com,Maxwell,CA,95955,1988-11-29,39.2802,-122.197,Google,2295,36
113,Kathleen Quitzon,kathleen-quitzon@yahoo.com,Redstone,MT,59257,1965-02-20,48.6554,-104.929,Google,2853,59
114,Wilbert Greenfelder,greenfelder.wilbert@gmail.com,Hopatcong,NJ,7843,1966-11-29,40.9225,-74.6548,Facebook,2622,58
115,Edwin Spencer,spencer.edwin@gmail.com,Angleton,TX,77515,1994-06-28,29.1886,-95.4851,Facebook,2867,30
116,Jimmie Doyle,doyle-jimmie@hotmail.com,Forsyth,MT,59327,1977-09-25,46.1367,-106.463,Facebook,2279,47
117,Hollis Hettinger,hollis-hettinger@gmail.com,Conneaut Lake,PA,16316,1994-01-29,41.602,-80.3263,Organic,2967,30
118,Diego Will,diego.will@yahoo.com,Huntington,TX,75949,1976-05-29,31.3799,-94.5246,Affiliate,2936,48
119,Makayla Heathcote,heathcote.makayla@gmail.com,Gainesville,GA,30507,1969-05-22,34.2667,-83.7452,Facebook,2937,55
120,Ashton Schmidt,schmidt-ashton@yahoo.com,Gardner,MA,1440,1994-09-14,42.5938,-72.0211,Affiliate,2397,30
121,Trace Morar,morar-trace@yahoo.com,Tripp,SD,57376,1971-05-29,43.3302,-97.8519,Google,2870,53
122,Brant Dare,brant.dare@yahoo.com,Maricopa,CA,93252,1984-11-15,34.751,-119.427,Twitter,2813,40
123,Gerald Hermiston,hermiston.gerald@yahoo.com,Lackawaxen,PA,18435,1996-06-17,41.4659,-74.9889,Affiliate,2966,28
124,Franco O'Reilly,reilly.o.franco@yahoo.com,Larimore,ND,58251,1976-04-19,47.8845,-97.6237,Affiliate,2294,48
125,Geoffrey D'Amore,d-amore-geoffrey@yahoo.com,Ishpeming,MI,49849,1971-08-01,46.358,-87.8291,Facebook,2257,53
126,Kris Yost,kris-yost@hotmail.com,Dublin,TX,76446,1986-04-02,31.9218,-98.3241,Google,2604,38
127,Hans Hagenes,hans-hagenes@hotmail.com,De Motte,IN,46310,1966-06-29,41.1491,-87.1797,Facebook,2858,58
128,Jakob Kerluke,kerluke.jakob@gmail.com,Del Norte,CO,81132,1958-06-20,37.7031,-106.374,Organic,2443,66
129,Grace Casper,casper-grace@hotmail.com,Mammoth Cave,KY,42259,1992-05-04,37.263,-86.1622,Affiliate,2275,32
130,Myrna Hickle,hickle-myrna@hotmail.com,Douglas,WY,82633,1974-06-08,43.1533,-105.019,Google,2421,50
131,Melisa Walter,walter-melisa@gmail.com,Linville,VA,22834,1968-05-26,38.5539,-78.8551,Facebook,2817,56
132,Kenna Bailey,bailey.kenna@yahoo.com,Grant Town,WV,26574,1961-11-22,39.5619,-80.1619,Google,2369,63
133,Christopher Hilll,christopher-hilll@hotmail.com,Circle,MT,59215,1981-08-15,47.6208,-105.389,Facebook,3019,43
134,Orie Bartoletti,orie-bartoletti@yahoo.com,Moses Lake,WA,98837,1996-10-28,47.3232,-119.309,Twitter,2267,28
135,Rhett Mante,rhett.mante@yahoo.com,North Ridgeville,OH,44039,1990-10-31,41.4142,-81.9847,Affiliate,2161,34
136,Aliyah Stracke,aliyah-stracke@gmail.com,North Zulch,TX,77872,1975-12-05,30.9388,-96.0701,Twitter,2331,49
137,Dayton Keebler,keebler-dayton@yahoo.com,Texarkana,AR,71854,1960-09-03,33.4107,-93.8873,Google,2354,64
138,Unique Runolfsson,runolfsson.unique@yahoo.com,Tracy,MN,56175,1975-04-16,44.2975,-95.6825,Twitter,2405,49
139,Norene Flatley,flatley-norene@yahoo.com,Yoakum,TX,77995,1995-08-02,29.1134,-97.021,Google,3051,29
140,Walker Conroy,walker.conroy@gmail.com,Baton Rouge,LA,70820,1961-09-15,30.3818,-91.1954,Affiliate,2743,63
141,Alvina Mertz,alvina.mertz@gmail.com,Waskish,MN,56685,1994-07-17,48.2058,-94.5749,Facebook,2673,30
142,Sheridan VonRueden,vonrueden-sheridan@hotmail.com,Centuria,WI,54824,1993-10-27,45.478,-92.5522,Organic,2310,31
143,Melyna Koepp,koepp-melyna@gmail.com,Wayne,NE,68787,1960-02-12,42.3286,-97.0178,Twitter,2126,64
144,Savanah Fahey,savanah.fahey@gmail.com,Russellville,OH,45168,1992-07-17,38.828,-83.7551,Twitter,2844,32
145,Aryanna Hegmann,hegmann-aryanna@yahoo.com,Lincoln,MI,48742,1975-05-09,44.7282,-83.4251,Facebook,2334,49
146,Trenton Batz,trenton-batz@yahoo.com,Casco,MI,48064,1990-12-07,42.7991,-82.6671,Affiliate,2936,34
147,Eileen Mayert,eileen-mayert@gmail.com,Tehachapi,CA,93561,1994-02-06,35.1663,-118.477,Facebook,2699,30
148,Madie Bayer,madie.bayer@hotmail.com,Greenwood,MS,38930,1963-11-18,33.6873,-90.2063,Organic,2158,61
149,Madonna Kertzmann,kertzmann.madonna@hotmail.com,Dillwyn,VA,23936,1995-06-16,37.5746,-78.4726,Facebook,3031,29
150,Henderson Hansen,hansen.henderson@hotmail.com,Folly Beach,SC,29439,1959-02-06,32.6821,-79.8918,Facebook,2383,65
151,Khalid McKenzie,khalid-mckenzie@gmail.com,Douglas,WY,82633,1996-10-19,42.6072,-105.51,Twitter,2351,28
152,Ethan Kling,kling-ethan@yahoo.com,Fairmount,ND,58030,1970-03-18,46.037,-96.7549,Facebook,2917,54
153,Lewis Hoppe,hoppe.lewis@gmail.com,River Falls,WI,54022,1967-12-22,44.9074,-92.6595,Google,2791,57
154,Monserrate Schuppe,schuppe-monserrate@gmail.com,Bellvue,CO,80512,1989-09-18,40.548,-105.474,Organic,2847,35
155,Trisha Hoeger,hoeger.trisha@yahoo.com,Uniontown,KY,42461,1982-02-04,37.7531,-87.9232,Affiliate,3179,42
156,Lolita Zemlak,zemlak.lolita@yahoo.com,Jacksonville,IL,62650,1993-09-30,39.7321,-90.2452,Twitter,2268,31
157,Ferne Tremblay,tremblay-ferne@yahoo.com,Columbia,NC,27925,1998-05-06,35.9256,-76.3022,Affiliate,2151,26
158,Maye Toy,toy-maye@yahoo.com,Essex,MO,63846,1983-08-01,36.8939,-89.7838,Affiliate,3146,41
159,Mattie Bayer,bayer-mattie@hotmail.com,Mechanicsville,IA,52306,1982-03-01,41.8323,-91.2777,Organic,2177,42
160,Jordane Pacocha,pacocha-jordane@hotmail.com,Macy,IN,46951,1968-03-17,40.9164,-86.0972,Twitter,3212,56
161,Rupert Ruecker,rupert.ruecker@yahoo.com,La Fayette,AL,36862,1985-05-31,32.7826,-85.387,Organic,2711,39
162,Destiney Swaniawski,swaniawski.destiney@hotmail.com,Attica,OH,44807,1978-08-05,41.1257,-82.8288,Twitter,2521,46
163,Rowena Hodkiewicz,hodkiewicz.rowena@yahoo.com,Hershey,NE,69143,1993-03-31,41.3167,-101.014,Twitter,2946,31
164,Sabryna Schumm,sabryna-schumm@gmail.com,Grand Rapids,MN,55744,1959-11-25,47.0766,-93.5084,Facebook,3170,65
165,Pattie Senger,pattie.senger@yahoo.com,Colquitt,GA,39837,1962-11-18,31.2316,-84.5972,Facebook,2359,62
166,Carmelo Carter,carter-carmelo@gmail.com,Onaway,MI,49765,1963-03-02,45.363,-84.3085,Google,2817,61
167,Grady Sipes,grady-sipes@yahoo.com,Lenoir,NC,28645,1993-07-11,35.8229,-81.5748,Organic,2401,31
168,Lucile Bednar,lucile-bednar@gmail.com,Somerville,TX,77879,1978-01-30,30.3281,-96.7381,Google,2526,46
169,Arnaldo Bartell,arnaldo-bartell@gmail.com,East Hampton,NY,11937,1979-05-19,40.9747,-72.1968,Organic,2293,45
170,Mohammed Beatty,beatty.mohammed@gmail.com,Ekalaka,MT,59324,1970-11-20,45.8241,-104.309,Google,2182,54
171,Raphael Wolff,raphael.wolff@hotmail.com,Lancaster,MN,56735,1995-11-15,48.8885,-96.6728,Twitter,3091,29
172,Maryam Weimann,weimann.maryam@gmail.com,Andrews,TX,79714,1996-12-17,32.3126,-102.396,Facebook,2750,28
173,Howard Gaylord,howard-gaylord@hotmail.com,Wakeman,OH,44889,1980-01-10,41.1678,-82.4357,Google,2602,44
174,Quentin Cummings,quentin.cummings@gmail.com,Needles,CA,92363,1964-04-21,34.8981,-114.783,Facebook,2240,60
175,Ernestina Gerhold,ernestina-gerhold@gmail.com,Ogden,IA,50212,1977-03-30,41.9774,-94.0697,Twitter,2226,47
176,Rebeca Parisian,rebeca.parisian@hotmail.com,Three Rivers,MI,49093,1992-09-08,42.053,-85.5144,Google,2912,32
177,Nikko Haag,nikko-haag@yahoo.com,Shannon,IL,61078,1978-02-27,42.1729,-89.7459,Google,2571,46
178,Joanie Cruickshank,joanie-cruickshank@yahoo.com,Frewsburg,NY,14738,1973-11-28,42.0122,-79.0464,Organic,2593,51
179,Van Windler,van.windler@hotmail.com,Ferriday,LA,71334,1981-08-09,31.6308,-91.5771,Google,2245,43
180,Wilma Roob,wilma.roob@yahoo.com,La Russell,MO,64848,1984-07-29,37.1765,-94.0074,Google,2422,40
181,Evalyn Moen,moen-evalyn@gmail.com,Kerman,CA,93630,1968-11-20,36.7805,-120.066,Twitter,2187,56
182,Dana Orn,dana-orn@hotmail.com,Cornersville,TN,37047,1962-04-06,35.3407,-86.8555,Twitter,2361,62
183,Rodolfo Larkin,larkin-rodolfo@yahoo.com,Priest River,ID,83856,1960-08-20,48.6032,-116.973,Google,2531,64
184,Jesse Daugherty,daugherty.jesse@yahoo.com,Austin,PA,16720,1960-02-12,41.5309,-78.0837,Organic,2917,64
185,Audra Hane,hane.audra@gmail.com,Toutle,WA,98649,1972-05-10,46.2864,-122.272,Organic,2441,52
186,Caitlyn Dach,caitlyn-dach@gmail.com,Brooklet,GA,30415,1964-10-04,32.377,-81.5191,Organic,2886,60
187,Bethel Schultz,bethel.schultz@gmail.com,Stanton,TN,38069,1977-12-23,35.507,-89.3736,Google,2707,47
188,Leda Hammes,leda-hammes@gmail.com,New England,ND,58647,1998-07-28,46.6409,-102.897,Facebook,2932,26
189,Vita Cummings,cummings.vita@gmail.com,New London,MO,63459,1985-11-25,39.605,-91.3184,Google,2149,39
190,Oswald Corwin,oswald.corwin@gmail.com,Ulster,PA,18850,1975-09-03,41.8804,-76.3495,Facebook,2927,49
191,Mustafa Steuber,mustafa.steuber@gmail.com,Cornell,WI,54732,1974-06-24,45.1939,-91.1803,Twitter,2196,50
192,Haleigh Funk,funk.haleigh@gmail.com,Varnville,SC,29944,1997-09-13,32.845,-81.0811,Affiliate,3034,27
193,Berta Roob,berta.roob@yahoo.com,Louisville,MS,39339,1990-11-24,33.1326,-89.1537,Google,2224,34
194,Destany Friesen,friesen-destany@hotmail.com,Mansfield,MO,65704,1959-03-04,37.1924,-92.5358,Google,3069,65
195,Green Carter,green-carter@hotmail.com,Richards,MO,64778,1959-11-12,37.9059,-94.5065,Organic,2342,65
196,Alvena Legros,alvena-legros@hotmail.com,Nogales,AZ,85621,1974-09-25,31.3797,-110.957,Organic,3211,50
197,Aletha Kertzmann,kertzmann.aletha@gmail.com,Klamath Falls,OR,97601,1989-10-29,42.1608,-121.886,Affiliate,2257,35
198,Tamara Sawayn,sawayn.tamara@yahoo.com,Garber,IA,52048,1993-06-23,42.7741,-91.2382,Organic,2141,31
199,Adan Weissnat,adan-weissnat@yahoo.com,Ashley,OH,43003,1960-03-26,40.3965,-82.9793,Affiliate,2400,64
200,Thalia Hirthe,thalia-hirthe@yahoo.com,Wabasso,MN,56293,1991-10-25,44.4338,-95.3307,Organic,2222,33
201,Ford Larkin,larkin.ford@yahoo.com,Iliamna,AK,99606,1972-01-07,59.7546,-154.872,Facebook,2868,52
202,Delphia Price,delphia.price@yahoo.com,Whitewater,MO,63785,1994-09-14,37.28,-89.8329,Affiliate,3182,30
203,Jessika Treutel,treutel-jessika@yahoo.com,Beaumont,TX,77713,1981-03-01,30.0021,-94.2665,Affiliate,2347,43
204,Enos Donnelly,enos-donnelly@hotmail.com,Fredericksburg,TX,78624,1984-03-03,30.206,-99.0854,Twitter,2923,40
205,Lowell Daniel,lowell-daniel@gmail.com,Big Sandy,TN,38221,1974-08-09,36.1941,-87.9898,Facebook,2371,50
206,Marcelina Jast,marcelina.jast@hotmail.com,Lewellen,NE,69147,1982-11-06,41.3769,-102.107,Google,2274,42
207,Earnest Huels,huels-earnest@hotmail.com,Sand Point,AK,99661,1988-08-19,55.294,-160.679,Organic,2885,36
208,Alisha Deckow,deckow.alisha@hotmail.com,Royalton,IL,62983,1987-08-29,37.8951,-89.0642,Affiliate,2471,37
209,Kyleigh Beier,beier.kyleigh@gmail.com,Sandwich,IL,60548,1968-08-12,41.6864,-88.634,Organic,2799,56
210,Earnestine Prohaska,prohaska-earnestine@gmail.com,Damon,TX,77430,1986-02-17,29.277,-95.6042,Twitter,2838,38
211,Quinn Stokes,stokes-quinn@hotmail.com,Orient,SD,57467,1976-07-30,44.765,-99.0478,Organic,2720,48
212,Jacinthe Rowe,jacinthe-rowe@gmail.com,Westcliffe,CO,81252,1967-09-26,38.2021,-105.637,Organic,2525,57
213,Connie Davis,connie.davis@yahoo.com,Ellijay,GA,30540,1964-07-27,34.716,-84.6347,Google,2324,60
214,Trace Daniel,trace-daniel@yahoo.com,Austin,MN,55912,1983-02-20,43.6342,-92.9346,Affiliate,2909,41
215,Benton McCullough,benton.mccullough@hotmail.com,Graham,TX,76450,1992-10-23,33.0769,-98.626,Organic,2370,32
216,Josh Kilback,kilback-josh@yahoo.com,Cody,WY,82414,1969-10-17,44.6974,-109.61,Organic,3014,55
217,Annabelle Schmeler,schmeler.annabelle@gmail.com,Slayton,MN,56172,1977-08-10,44.0728,-95.7249,Facebook,2876,47
218,Stan Jacobson,jacobson.stan@gmail.com,St. Louis,MI,48880,1967-05-20,43.5027,-84.5067,Affiliate,2413,57
219,Isaias Spencer,isaias.spencer@gmail.com,Killingly,CT,6239,1995-12-26,41.7789,-71.8441,Google,2940,29
220,Bette Lang,bette-lang@gmail.com,Reva,SD,57651,1971-06-10,45.4232,-102.982,Organic,3127,53
221,Seth Goldner,goldner-seth@yahoo.com,Iowa City,IA,52240,1965-02-05,41.6073,-91.4476,Twitter,3009,59
222,Theodora Dibbert,theodora-dibbert@gmail.com,Chandler,MN,56122,1965-06-29,43.8482,-95.908,Twitter,2659,59
223,Frederik Bosco,frederik.bosco@yahoo.com,Fairbanks,AK,99701,1993-07-30,66.3724,-150.492,Twitter,2984,31
224,Pamela Murray,pamela-murray@hotmail.com,Danville,OH,43014,1996-08-03,40.4771,-82.2604,Organic,2787,28
225,Gunnar Doyle,doyle.gunnar@hotmail.com,Croswell,MI,48422,1995-09-14,43.3396,-82.6755,Facebook,2289,29
226,Breana Thiel,breana-thiel@gmail.com,Elbow Lake,MN,56531,1984-10-28,45.9052,-96.0413,Google,2511,40
227,Merl Yundt,yundt.merl@yahoo.com,Livingston,TX,77351,1964-03-06,30.7337,-94.9438,Google,3204,60
228,Estefania Leuschke,leuschke-estefania@yahoo.com,Galivants Ferry,SC,29544,1961-05-08,34.0708,-79.2102,Twitter,2713,63
229,Jewell Walker,jewell-walker@gmail.com,Berea,KY,40403,1972-02-16,37.5307,-84.3436,Organic,2305,52
230,Stacy Adams,adams.stacy@gmail.com,Wheeler,WI,54772,1988-03-03,45.0499,-91.9177,Affiliate,2574,36
231,Foster Marks,foster-marks@yahoo.com,Tucson,AZ,85739,1999-01-11,32.5546,-110.934,Affiliate,2980,25
232,Magnolia Hansen,hansen.magnolia@gmail.com,Von Ormy,TX,78073,1982-04-10,29.2315,-98.5867,Twitter,3162,42
233,Ulices Feil,feil-ulices@hotmail.com,Shubuta,MS,39360,1990-03-23,31.7875,-88.7971,Affiliate,2990,34
234,Bertrand Streich,streich-bertrand@gmail.com,Talkeetna,AK,99676,1967-04-13,62.1421,-149.911,Google,2413,57
235,Jerrod King,jerrod-king@yahoo.com,Ostrander,OH,43061,1959-06-28,40.2322,-83.1745,Google,2410,65
236,Doris Spencer,doris.spencer@yahoo.com,Piedmont,SC,29673,1986-12-01,34.716,-82.4691,Twitter,2507,38
237,Ernie Kohler,kohler.ernie@yahoo.com,Shapleigh,ME,4076,1986-09-02,43.6307,-70.8311,Facebook,2213,38
238,Derrick Walker,walker-derrick@yahoo.com,Pleasant Mount,PA,18453,1970-03-08,41.7372,-75.3112,Organic,3043,54
239,Glenna Runolfsson,runolfsson-glenna@hotmail.com,Sandy Level,VA,24161,1989-02-11,37.0106,-79.5713,Facebook,2240,35
240,Anais Douglas,douglas.anais@hotmail.com,Elkton,MD,21921,1984-11-24,39.6547,-75.8952,Twitter,2712,40
241,Christiana Boyle,boyle-christiana@gmail.com,Three Rivers,MI,49093,1988-05-25,42.0185,-85.5428,Twitter,2742,36
242,Jaylin Hudson,jaylin.hudson@yahoo.com,Woodstock,MN,56186,1992-07-26,44.0019,-96.0484,Facebook,2352,32
243,Paige Miller,miller.paige@gmail.com,Imperial,MO,63052,1999-02-10,38.3909,-90.4222,Google,3005,25
244,Jessika Funk,jessika.funk@yahoo.com,Bethune,SC,29009,1960-03-01,34.4423,-80.4121,Twitter,3062,64
245,Adonis Will,adonis.will@gmail.com,Hudson,KY,40145,1990-10-04,37.6376,-86.3101,Organic,2762,34
246,Francesca Gleason,francesca.gleason@gmail.com,Fall Creek,WI,54742,1970-05-01,44.8002,-91.1807,Affiliate,2174,54
247,Stella Abbott,stella-abbott@yahoo.com,Mount Sterling,OH,43143,1986-05-02,39.6529,-83.3396,Google,3184,38
248,Chanelle Cummings,cummings.chanelle@yahoo.com,Great Bend,KS,67530,1978-10-22,38.3649,-98.6733,Organic,2867,46
249,Neva Langworth,neva-langworth@yahoo.com,Holdingford,MN,56340,1994-10-01,45.7585,-94.4943,Twitter,2601,30
250,Antwon Pagac,antwon.pagac@yahoo.com,Rising Star,TX,76471,1994-11-29,32.1736,-98.9516,Google,2122,30
251,Dominique Bergnaum,dominique.bergnaum@gmail.com,Binghamton,NY,13901,1967-07-15,42.1824,-75.8417,Affiliate,2995,57
252,Delphia Denesik,denesik-delphia@hotmail.com,Carnesville,GA,30521,1966-10-16,34.4362,-83.2612,Google,2228,58
253,Kyla Zemlak,kyla-zemlak@hotmail.com,Hermosa,SD,57744,1977-11-23,43.8941,-103.123,Twitter,2884,47
254,Ramiro Green,ramiro-green@yahoo.com,Reynolds,IN,47980,1979-03-25,40.7652,-86.8898,Affiliate,2265,45
255,Hudson Jacobi,hudson.jacobi@hotmail.com,Axton,VA,24054,1972-02-29,36.7088,-79.6794,Affiliate,2575,52
256,Rupert Walsh,walsh-rupert@hotmail.com,Carlinville,IL,62626,1990-11-24,39.2996,-89.8231,Twitter,2526,34
257,Summer Aufderhar,summer.aufderhar@hotmail.com,Arlington,NE,68002,1960-12-23,41.4699,-96.3151,Facebook,2878,64
258,Melvin Upton,upton.melvin@gmail.com,Sprakers,NY,12166,1984-02-04,42.8194,-74.4285,Facebook,2485,40
259,Krystel Boyle,krystel.boyle@yahoo.com,Upton,WY,82730,1999-01-25,44.027,-104.733,Affiliate,2228,25
260,Lexie Franecki,franecki-lexie@gmail.com,Texarkana,AR,71854,1977-07-08,33.4952,-93.9308,Affiliate,2490,47
261,Jaden Cole,cole.jaden@gmail.com,Sandusky,MI,48471,1973-07-16,43.3446,-82.8239,Google,2993,51
262,Aaron Hand,hand.aaron@hotmail.com,Hardy,NE,68943,1964-05-17,40.0203,-97.8167,Twitter,2228,60
263,Ashlee Mertz,ashlee.mertz@gmail.com,Soddy-Daisy,TN,37379,1965-06-10,35.3402,-85.1264,Facebook,2286,59
264,Arno Bruen,bruen.arno@gmail.com,Hillsboro,ND,58045,1978-05-11,47.4284,-97.1743,Facebook,2142,46
265,Larry Weimann,larry.weimann@gmail.com,Gold Hill,OR,97525,1959-01-11,42.3842,-123.078,Google,3014,65
266,Beau Rutherford,rutherford-beau@yahoo.com,Blue Creek,OH,45616,1967-08-24,38.7161,-83.341,Google,2443,57
267,Rogers Bode,bode-rogers@hotmail.com,Perdido,AL,36562,1997-09-09,31.0491,-87.7168,Affiliate,2690,27
268,Marvin Hegmann,marvin-hegmann@hotmail.com,Pekin,IL,61554,1980-10-03,40.5113,-89.6241,Facebook,3158,44
269,Mara Prohaska,prohaska.mara@yahoo.com,Friona,TX,79035,1991-08-01,34.5312,-102.535,Twitter,2639,33
270,Chester Eichmann,eichmann.chester@hotmail.com,Arley,AL,35541,1994-12-05,34.079,-87.1614,Organic,2831,30
271,Aurore Ryan,aurore.ryan@gmail.com,Glendale,UT,84729,1959-04-09,37.3458,-112.624,Affiliate,2208,65
272,Roy Paucek,paucek.roy@gmail.com,Cedar Point,KS,66843,1970-02-09,38.1811,-96.7131,Facebook,2444,54
273,Jesus Bins,bins-jesus@hotmail.com,Hiawatha,KS,66434,1962-08-31,39.8391,-95.5969,Organic,2942,62
274,Cameron Strosin,strosin.cameron@gmail.com,Anamoose,ND,58710,1995-11-23,47.833,-100.318,Facebook,2669,29
275,Gabrielle Considine,gabrielle-considine@yahoo.com,Oconto Falls,WI,54154,1970-04-27,44.9365,-88.1927,Affiliate,3097,54
276,Abbie Ryan,abbie-ryan@hotmail.com,Sultan,WA,98294,1971-12-30,47.8536,-121.501,Facebook,2957,53
277,Ruthe Champlin,ruthe-champlin@gmail.com,Churchville,MD,21028,1967-06-10,39.5737,-76.2641,Affiliate,2736,57
278,Fredrick Gulgowski,fredrick-gulgowski@yahoo.com,Chesnee,SC,29323,1989-02-21,35.0742,-81.8662,Facebook,3167,35
279,Orville Effertz,orville-effertz@hotmail.com,Eldora,IA,50627,1969-08-27,42.3413,-93.0848,Organic,2822,55
280,Ryleigh Gleason,ryleigh.gleason@gmail.com,Kim,CO,81049,1996-08-18,37.4312,-103.446,Organic,2437,28
281,Marcelina Feest,feest.marcelina@hotmail.com,Maryville,TN,37803,1997-04-09,35.69,-83.9226,Facebook,2209,27
282,Breanna Hodkiewicz,breanna.hodkiewicz@hotmail.com,Grinnell,IA,50112,1962-04-10,41.7821,-92.688,Organic,2148,62
283,Stanford Feest,stanford-feest@gmail.com,Lakeview,MI,48850,1961-09-27,43.4605,-85.2399,Google,3111,63
284,Shyanne Hettinger,hettinger.shyanne@yahoo.com,Duchesne,UT,84021,1959-11-18,40.131,-110.679,Organic,2185,65
285,Okey Botsford,botsford.okey@hotmail.com,Keene,ND,58847,1970-09-09,47.9994,-102.977,Affiliate,3020,54
286,Pamela Jast,pamela-jast@hotmail.com,Edgerton,WI,53534,1982-03-22,42.9076,-89.065,Organic,2631,42
287,Alverta Reilly,reilly.alverta@yahoo.com,Boys Ranch,TX,79010,1997-06-30,35.4347,-102.261,Google,3058,27
288,Morgan Miller,miller.morgan@gmail.com,Tollhouse,CA,93667,1973-05-27,37.0366,-119.429,Facebook,2129,51
289,Lacey Dickinson,lacey.dickinson@hotmail.com,Mullin,TX,76864,2000-03-31,31.5684,-98.7032,Affiliate,2651,24
290,Lila Marks,marks.lila@gmail.com,Williamsport,IN,47993,1977-09-02,40.2804,-87.407,Organic,2150,47
291,Jovan Buckridge,buckridge-jovan@hotmail.com,Marshall,NC,28753,1986-02-28,35.9268,-82.6489,Affiliate,2689,38
292,Krystal Schaden,schaden-krystal@yahoo.com,Wasilla,AK,99654,1991-06-17,61.5292,-149.458,Affiliate,3183,33
293,Cornell Connelly,connelly.cornell@yahoo.com,Greene,IA,50636,1960-11-03,42.8487,-92.8694,Twitter,2579,64
294,Neil O'Connell,connell-o-neil@gmail.com,Philip,SD,57567,1974-07-10,43.8969,-101.761,Twitter,2696,50
295,Aliyah Pfannerstill,pfannerstill-aliyah@hotmail.com,Wasco,CA,93280,1968-01-21,35.5254,-119.464,Google,2904,56
296,Nellie Heller,heller-nellie@yahoo.com,Gray,ME,4039,1965-09-11,43.8726,-70.2876,Facebook,3083,59
297,Ryley Nader,nader-ryley@hotmail.com,Tomball,TX,77375,1962-08-24,30.0985,-95.6346,Twitter,2671,62
298,Bernhard Boyer,boyer-bernhard@yahoo.com,Trapper Creek,AK,99688,1964-03-01,62.3638,-150.348,Affiliate,2929,60
299,Delbert Borer,borer.delbert@hotmail.com,Cabot,PA,16023,1982-10-23,40.7841,-79.7983,Twitter,2570,42
300,Bryon Lakin,bryon.lakin@gmail.com,Valdosta,GA,31601,1999-07-14,30.7506,-83.232,Facebook,3186,25
301,Nichole Ledner,ledner-nichole@yahoo.com,Goodell,IA,50439,1998-03-25,42.9376,-93.6411,Organic,2331,26
302,Aubree Walter,aubree-walter@hotmail.com,Ruthven,IA,51358,1984-10-10,43.1187,-94.9136,Organic,2486,40
303,Orlando Kovacek,kovacek.orlando@hotmail.com,Oxford,MS,38655,1974-08-22,34.3884,-89.4442,Facebook,2398,50
304,Emmanuelle Sporer,sporer-emmanuelle@hotmail.com,Pembina,ND,58271,1970-11-12,48.805,-97.2063,Twitter,2975,54
305,Rebekah Dickinson,rebekah-dickinson@hotmail.com,Slate Hill,NY,10973,1967-06-14,41.3713,-74.5085,Facebook,2619,57
306,Louie Breitenberg,breitenberg-louie@gmail.com,Phenix City,AL,36869,1980-01-04,32.3738,-85.0685,Twitter,2369,44
307,Vladimir Kuphal,vladimir.kuphal@yahoo.com,Bremo Bluff,VA,23022,1959-06-03,37.7499,-78.2553,Google,2916,65
308,Kamille Bartell,kamille-bartell@gmail.com,Gibson,IA,50104,1999-08-08,41.51,-92.4001,Twitter,2941,25
309,Marilou Koss,marilou-koss@hotmail.com,Sturgis,SD,57785,1984-07-22,44.3994,-103.701,Facebook,2508,40
310,Libby Ledner,ledner-libby@yahoo.com,Creston,NC,28615,1977-05-23,36.443,-81.6218,Twitter,2719,47
311,Orlo Lueilwitz,lueilwitz.orlo@yahoo.com,Rebersburg,PA,16872,1987-07-10,40.9406,-77.4245,Facebook,2652,37
312,Lauren Lueilwitz,lueilwitz.lauren@yahoo.com,Sulligent,AL,35586,1960-11-29,33.7877,-88.228,Affiliate,2973,64
313,Miguel Reynolds,miguel-reynolds@gmail.com,Sand Point,AK,99661,1960-02-27,55.294,-160.679,Organic,2175,64
314,Tomas Mraz,mraz-tomas@gmail.com,Alexandria,SD,57311,1984-02-22,43.4903,-97.7438,Facebook,2217,40
315,Autumn Feeney,autumn.feeney@hotmail.com,Bridgeville,DE,19933,1994-01-22,38.7319,-75.5012,Organic,2286,30
316,Judd Hickle,judd-hickle@gmail.com,Valentine,NE,69201,1998-05-02,42.6917,-100.744,Affiliate,2729,26
317,Sibyl Bernier,sibyl.bernier@gmail.com,Akron,OH,44301,1992-02-18,41.0493,-81.5361,Affiliate,2230,32
318,Cassandre Daugherty,daugherty.cassandre@gmail.com,Walden,CO,80480,1973-06-14,40.7487,-106.611,Affiliate,2710,51
319,Alexa Marvin,alexa.marvin@gmail.com,O'Fallon,IL,62269,1963-11-03,38.654,-89.9497,Google,2162,61
320,Adriel Hudson,hudson.adriel@yahoo.com,Warren,MN,56762,1972-07-02,48.1697,-96.7452,Twitter,2753,52
321,Francesca Hammes,francesca.hammes@yahoo.com,Roswell,NM,88201,1980-01-10,33.53,-104.839,Organic,2155,44
322,Scot Rippin,scot-rippin@hotmail.com,Yuma,CO,80759,1985-03-02,40.2052,-102.717,Google,3187,39
323,Deja Schmeler,deja.schmeler@gmail.com,Paulsboro,NJ,8066,1986-02-17,39.8454,-75.2503,Affiliate,2155,38
324,Ardella Willms,willms-ardella@yahoo.com,Kim,CO,81049,1994-01-19,37.6252,-103.352,Facebook,3134,30
325,Orrin Lemke,lemke-orrin@yahoo.com,Erie,IL,61250,1983-04-20,41.6501,-90.1318,Twitter,2445,41
326,Clovis Homenick,homenick-clovis@yahoo.com,Avella,PA,15312,1993-06-01,40.205,-80.3959,Twitter,2251,31
327,Rosario Bradtke,bradtke.rosario@yahoo.com,Rankin,IL,60960,1960-08-12,40.3908,-87.9144,Organic,2280,64
328,Merle Blick,merle.blick@yahoo.com,Santa Maria,CA,93454,2000-02-19,34.8651,-120.296,Twitter,2546,24
329,Elwin Okuneva,elwin.okuneva@gmail.com,Blaine,TN,37709,1994-09-14,36.1709,-83.7152,Affiliate,3109,30
330,Edward McClure,edward.mcclure@gmail.com,Hermleigh,TX,79526,1975-12-24,32.5654,-100.8,Organic,2812,49
331,Max Reynolds,max.reynolds@gmail.com,Upson,WI,54565,1982-01-07,46.3313,-90.4063,Affiliate,2194,42
332,Kayley Klein,kayley.klein@hotmail.com,Fairbanks,AK,99709,1998-03-01,64.8469,-148.226,Twitter,2474,26
333,Floyd Lehner,floyd.lehner@hotmail.com,Inverness,CA,94937,2000-02-07,37.997,-122.993,Twitter,2342,24
334,Berneice Abbott,abbott-berneice@hotmail.com,Humboldt,NE,68376,1994-03-23,40.2127,-95.8462,Twitter,2377,30
335,Guy Wiegand,wiegand.guy@gmail.com,Flasher,ND,58535,1989-06-23,46.4302,-101.132,Facebook,2508,35
336,Wilhelmine Erdman,wilhelmine.erdman@gmail.com,Blue Ridge,VA,24064,1962-09-19,37.3296,-79.7311,Organic,2876,62
337,Adolph Tillman,tillman.adolph@gmail.com,Wadley,AL,36276,1961-07-18,33.0357,-85.5411,Facebook,2736,63
338,Ernie Bogan,bogan.ernie@gmail.com,Dixon,CA,95620,1990-01-22,38.4267,-121.652,Google,3043,34
339,Keagan Hirthe,hirthe-keagan@yahoo.com,East Dublin,GA,31027,1979-03-29,32.4891,-82.7934,Google,3026,45
340,Serenity Wolff,serenity.wolff@hotmail.com,Plymouth,IN,46563,1975-01-09,41.3328,-86.2218,Facebook,2201,49
341,Andrew Russel,russel-andrew@yahoo.com,Metairie,LA,70006,1982-09-03,30.0217,-90.1867,Twitter,3113,42
342,Lavinia Harber,harber.lavinia@yahoo.com,Powderly,TX,75473,1973-10-11,33.7379,-95.5021,Affiliate,3160,51
343,Angus Feest,feest-angus@gmail.com,White Plains,GA,30678,1992-04-25,33.4741,-83.0423,Google,2222,32
344,Ellsworth Stamm,ellsworth.stamm@gmail.com,Cazenovia,NY,13035,1982-03-16,42.9047,-75.781,Google,2242,42
345,Jayme Zulauf,zulauf-jayme@yahoo.com,Bolivar,NY,14715,1993-05-18,42.0515,-78.2052,Twitter,2567,31
346,Alene Abernathy,alene-abernathy@gmail.com,Monroe,TN,38573,1995-08-04,36.4509,-85.1597,Facebook,2611,29
347,Ola Gottlieb,gottlieb-ola@gmail.com,Rochelle,IL,61068,1971-06-25,41.9093,-89.0507,Affiliate,2214,53
348,Elmore Weissnat,weissnat.elmore@gmail.com,Le Flore,OK,74942,1986-03-11,34.8956,-94.9735,Organic,2869,38
349,Agustin Collins,collins-agustin@gmail.com,Roy,MT,59471,1981-06-10,47.3663,-108.518,Facebook,3142,43
350,Quentin Dickinson,quentin.dickinson@gmail.com,Brookline,VT,5345,1964-06-24,43.0283,-72.5981,Google,2917,60
351,Maudie Leannon,maudie.leannon@hotmail.com,Lake Odessa,MI,48849,1991-06-22,42.7842,-85.2515,Twitter,3178,33
352,Lowell Koelpin,koelpin-lowell@yahoo.com,Orlando,FL,32803,1963-07-25,28.5522,-81.3515,Affiliate,2559,61
353,Hulda Hintz,hintz.hulda@hotmail.com,Freeland,MI,48623,1970-12-19,43.4963,-84.0544,Facebook,2372,54
354,Molly Robel,robel-molly@hotmail.com,Lovell,WY,82431,1984-05-22,44.7162,-108.186,Facebook,2495,40
355,Jairo Schiller,schiller.jairo@yahoo.com,Pelahatchie,MS,39145,1999-06-21,32.203,-89.7955,Organic,2925,25
356,Meta Koelpin,meta-koelpin@gmail.com,Montello,WI,53949,1995-07-01,43.7774,-89.457,Twitter,2554,29
357,Raegan Witting,witting-raegan@gmail.com,Judith Gap,MT,59453,1984-08-02,46.6066,-109.565,Twitter,2324,40
358,Antonina Rolfson,antonina.rolfson@hotmail.com,Pine Mountain,GA,31822,1983-11-02,32.8635,-84.8624,Google,3010,41
359,Mattie Russel,mattie.russel@yahoo.com,Blanco,TX,78606,1974-08-10,30.128,-98.4837,Affiliate,2577,50
360,Stuart Wintheiser,stuart-wintheiser@hotmail.com,Jackson,MO,63755,1995-09-26,37.5582,-89.5358,Google,2354,29
361,Unique Balistreri,balistreri-unique@gmail.com,Collettsville,NC,28611,1971-01-02,35.997,-81.682,Twitter,3172,53
362,Jaqueline Waelchi,waelchi-jaqueline@hotmail.com,Harpster,OH,43323,1992-11-15,40.738,-83.2869,Affiliate,2245,32
363,Diana Marvin,marvin.diana@hotmail.com,King City,CA,93930,1983-01-11,36.185,-121.197,Google,2981,41
364,Geovanny Turcotte,geovanny.turcotte@hotmail.com,Sheldon,WI,54766,1977-12-15,45.3942,-90.9355,Google,2748,47
365,Sibyl Hettinger,sibyl-hettinger@hotmail.com,Hampton,NE,68843,1978-11-09,41.0168,-97.8283,Affiliate,2344,46
366,Justina Blanda,justina-blanda@yahoo.com,LaFollette,TN,37766,1978-10-07,36.2944,-84.0974,Facebook,2376,46
367,Gaetano Wilderman,gaetano.wilderman@yahoo.com,Circle,MT,59215,1966-12-07,47.551,-106.081,Affiliate,2255,58
368,Trudie Wisoky,wisoky.trudie@gmail.com,Laytonsville,MD,20882,1995-10-27,39.269,-77.1947,Google,2314,29
369,Alia O'Reilly,reilly-alia-o@hotmail.com,Chidester,AR,71726,1990-11-14,33.6958,-93.002,Facebook,2220,34
370,Lisette Roberts,lisette.roberts@hotmail.com,Philadelphia,MS,39350,1970-12-16,32.8553,-88.961,Affiliate,2935,54
371,Kimberly Braun,braun-kimberly@yahoo.com,Skipwith,VA,23968,1960-04-02,36.7203,-78.5599,Twitter,2886,64
372,Meagan Cremin,meagan.cremin@yahoo.com,Richlands,NC,28574,1977-12-03,34.7803,-77.6266,Facebook,2398,47
373,Dawson Kuvalis,dawson-kuvalis@gmail.com,Abiquiu,NM,87510,1990-03-09,36.3935,-106.49,Google,2544,34
374,Ryleigh Padberg,ryleigh-padberg@hotmail.com,Union Springs,NY,13160,1978-09-06,42.8718,-76.6304,Affiliate,2915,46
375,Ryder Kunde,kunde-ryder@yahoo.com,Helena,MT,59602,1997-11-30,46.7989,-112.18,Google,2410,27
376,Fanny Gutmann,gutmann.fanny@yahoo.com,Lagro,IN,46941,1969-03-13,40.8424,-85.7273,Twitter,2638,55
377,Prince Quitzon,prince.quitzon@yahoo.com,Great Falls,MT,59404,1981-11-22,47.469,-111.448,Organic,2477,43
378,Corbin Mertz,corbin.mertz@hotmail.com,Church Point,LA,70525,1971-03-21,30.326,-92.2038,Affiliate,2673,53
379,Theresia Johnston,theresia.johnston@yahoo.com,Ruffs Dale,PA,15679,1984-02-29,40.1861,-79.6712,Google,2184,40
380,Faustino Okuneva,faustino-okuneva@yahoo.com,Castine,ME,4421,1982-06-23,44.3998,-68.8101,Affiliate,3211,42
381,Trudie Koch,trudie.koch@yahoo.com,Orleans,IN,47452,1987-03-25,38.6913,-86.4017,Twitter,2838,37
382,Thaddeus Lindgren,thaddeus.lindgren@yahoo.com,Chiefland,FL,32626,1968-12-01,29.4371,-82.814,Twitter,2776,56
383,Phoebe Wintheiser,wintheiser-phoebe@yahoo.com,Egeland,ND,58331,1974-02-15,48.6167,-99.1286,Affiliate,2713,50
384,Tressie Smitham,tressie-smitham@yahoo.com,Pontotoc,MS,38863,1958-10-21,34.1911,-89.1203,Google,3096,66
385,Veda Raynor,veda.raynor@yahoo.com,False Pass,AK,99583,1995-06-24,54.8489,-163.407,Facebook,2992,29
386,Omer Kautzer,omer.kautzer@gmail.com,Copper Center,AK,99573,1965-02-12,61.2668,-145.283,Affiliate,3208,59
387,Selina O'Hara,selina.o.hara@gmail.com,Ukiah,CA,95482,1987-10-12,39.166,-123.381,Facebook,2485,37
388,Nicklaus Hahn,hahn-nicklaus@hotmail.com,Stanhope,IA,50246,1990-07-03,42.2819,-93.7431,Facebook,3037,34
389,Mellie Wolf,wolf.mellie@yahoo.com,Lawrence,NE,68957,1961-03-28,40.1801,-98.2325,Affiliate,2922,63
390,Brenna Hudson,brenna.hudson@hotmail.com,Ashton,ID,83420,1972-08-12,44.1041,-111.492,Organic,2491,52
391,Gilberto Mueller,gilberto-mueller@gmail.com,Parlin,CO,81239,1984-05-21,38.521,-106.677,Twitter,2740,40
392,Percival Schuppe,schuppe.percival@hotmail.com,Canton,GA,30114,1985-04-05,34.2581,-84.4209,Affiliate,2226,39
393,Sigurd Abernathy,sigurd-abernathy@yahoo.com,Mancelona,MI,49659,1962-10-20,44.8954,-85.0113,Twitter,3090,62
394,Rosario Thiel,thiel-rosario@gmail.com,Lonoke,AR,72086,1989-09-06,34.8236,-91.8406,Twitter,3152,35
395,Chet Blick,chet-blick@yahoo.com,Brooksville,FL,34614,1980-12-30,28.6706,-82.619,Google,2394,44
396,Alfred Parisian,parisian-alfred@gmail.com,Mitchell,SD,57301,1996-05-30,43.6585,-98.1352,Organic,3184,28
397,Lavern Botsford,lavern.botsford@hotmail.com,Townville,PA,16360,1960-05-21,41.7117,-79.9305,Twitter,3183,64
398,Norval Collins,norval-collins@gmail.com,Pelican Rapids,MN,56572,1999-08-15,46.5653,-96.1857,Organic,2649,25
399,Leilani Sanford,sanford.leilani@yahoo.com,Talkeetna,AK,99676,1977-10-28,62.1402,-149.912,Organic,2133,47
400,Benton Huel,benton.huel@gmail.com,Muscatine,IA,52761,1996-01-16,41.4294,-91.1866,Affiliate,2739,28
401,Mark Hane,hane.mark@gmail.com,Robbins,NC,27325,1983-05-11,35.4119,-79.5268,Twitter,2666,41
402,Carmella Cummerata,cummerata-carmella@hotmail.com,Batesville,AR,72501,1994-05-31,35.7832,-91.6198,Organic,2358,30
403,Andy Schmeler,andy.schmeler@gmail.com,Sutton,MA,1590,1987-02-19,42.106,-71.7159,Facebook,2123,37
404,Lolita Ferry,lolita.ferry@hotmail.com,Sunderland,MD,20689,1995-12-23,38.6433,-76.5584,Affiliate,2674,29
405,Gwen Ruecker,gwen-ruecker@gmail.com,Groton,NY,13073,1993-01-03,42.6078,-76.3542,Twitter,2611,31
406,Kacie Skiles,kacie-skiles@yahoo.com,Chancellor,SD,57015,1993-07-10,43.4861,-96.9791,Affiliate,2164,31
407,Liliane Blanda,blanda.liliane@gmail.com,Beaumont,TX,77705,1992-01-15,29.8558,-94.0979,Organic,2826,32
408,Drake Beahan,drake.beahan@hotmail.com,Bettles,AK,99726,1978-06-21,66.9246,-151.506,Organic,2581,46
409,Kenyon Watsica,watsica.kenyon@gmail.com,Lake Charles,LA,70607,1992-03-02,29.9929,-93.1544,Organic,2478,32
410,Donald Dietrich,donald.dietrich@gmail.com,North,SC,29112,1986-10-26,33.6012,-81.1554,Affiliate,2320,38
411,Ruthe Gibson,gibson.ruthe@hotmail.com,Fayetteville,NC,28306,1977-08-09,34.9607,-78.7813,Affiliate,2475,47
412,Earnestine Lockman,earnestine-lockman@hotmail.com,Eureka,CA,95503,1964-03-29,40.7585,-124.049,Facebook,2529,60
413,Joanne Osinski,osinski-joanne@gmail.com,Durango,CO,81301,1976-10-25,37.2884,-108.003,Facebook,2936,48
414,Casey Metz,metz.casey@yahoo.com,Canton,GA,30114,1960-05-17,34.2125,-84.6061,Google,2679,64
415,Orlo Champlin,orlo.champlin@gmail.com,Douglas,WY,82633,1976-12-27,43.4571,-105.455,Google,2255,48
416,Zoe Bernhard,zoe.bernhard@yahoo.com,Goetzville,MI,49736,1981-08-27,46.1527,-84.1175,Affiliate,2281,43
417,Rowan Hyatt,hyatt.rowan@hotmail.com,Coulterville,IL,62237,1995-11-15,38.2323,-89.667,Google,2602,29
418,Ella Koss,koss-ella@hotmail.com,Bulverde,TX,78163,1993-05-13,29.7621,-98.5691,Google,2464,31
419,Jaeden Cremin,cremin-jaeden@yahoo.com,Franklin,KY,42134,1989-07-24,36.7178,-86.4416,Google,2302,35
420,Crystel Mann,mann-crystel@yahoo.com,Tolna,ND,58380,1975-12-16,47.7602,-98.5808,Organic,2414,49
421,Arely Zulauf,zulauf.arely@yahoo.com,Fairmont,OK,73736,1963-08-06,36.3361,-97.6353,Facebook,2781,61
422,Reagan DuBuque,reagan.dubuque@hotmail.com,Chula,GA,31733,1969-03-17,31.5883,-83.485,Organic,2418,55
423,Loyce Cole,loyce-cole@hotmail.com,Elliott,IA,51532,1992-10-01,41.1435,-95.1535,Google,2324,32
424,Earline Gulgowski,earline-gulgowski@yahoo.com,Puxico,MO,63960,1971-03-01,36.9492,-90.1345,Google,3091,53
425,Enrique Wiegand,wiegand.enrique@hotmail.com,Duncan,MS,38740,1978-07-11,33.9995,-90.8827,Twitter,2403,46
426,Rollin Ondricka,ondricka.rollin@gmail.com,Moapa,NV,89025,1993-03-10,36.4569,-114.847,Facebook,2935,31
427,Chester Koepp,chester-koepp@yahoo.com,Myakka City,FL,34251,1991-12-08,27.3317,-82.0847,Twitter,2663,33
428,Kennedy Kunde,kennedy-kunde@gmail.com,Ingalls,KS,67853,1977-07-07,38.03,-100.392,Facebook,2322,47
429,Andy Skiles,andy-skiles@yahoo.com,Juda,WI,53550,1997-05-24,42.5574,-89.5572,Facebook,2581,27
430,Justine Kertzmann,kertzmann.justine@yahoo.com,Saucier,MS,39574,1976-11-28,30.6692,-89.0776,Facebook,3087,48
431,Tobin Huels,tobin.huels@gmail.com,Monticello,UT,84535,1973-10-27,37.8729,-109.161,Affiliate,2793,51
432,Lou Runte,lou.runte@gmail.com,Vernal,UT,84078,1996-08-03,39.929,-109.381,Twitter,3009,28
433,Kim Grant,kim.grant@yahoo.com,La Veta,CO,81055,1974-05-06,37.5086,-105.006,Organic,2917,50
434,Domenico Abernathy,domenico.abernathy@gmail.com,Anderson,SC,29621,1992-06-08,34.5489,-82.6196,Google,2272,32
435,Allan Runolfsson,runolfsson-allan@gmail.com,West Plains,MO,65775,1999-10-16,36.7191,-91.6816,Facebook,2616,25
436,Heber Turner,turner-heber@gmail.com,Scranton,IA,51462,1989-10-28,41.9938,-94.4972,Facebook,3129,35
437,Danial Keeling,danial.keeling@yahoo.com,Toston,MT,59643,1982-10-07,46.1215,-111.598,Google,2396,42
438,Arvid Hermiston,hermiston-arvid@hotmail.com,Livermore,CA,94551,1986-08-01,37.7203,-121.794,Organic,2746,38
439,Ivah Tromp,tromp-ivah@gmail.com,Wing,ND,58494,1985-02-04,47.011,-100.356,Facebook,2219,39
440,Sarina Bailey,bailey.sarina@gmail.com,Cambridge,MN,55008,1986-09-22,45.6198,-93.2683,Google,2983,38
441,Pietro Bogisich,pietro-bogisich@hotmail.com,Onamia,MN,56359,1975-03-05,46.1212,-93.5873,Affiliate,2409,49
442,Arch Simonis,arch-simonis@hotmail.com,Philippi,WV,26416,1997-07-08,39.2379,-80.0204,Facebook,2195,27
443,Lisa VonRueden,vonrueden-lisa@yahoo.com,Marion,ND,58466,1981-04-29,46.598,-98.2902,Twitter,3086,43
444,Andres Zulauf,andres-zulauf@yahoo.com,Baxter Springs,KS,66713,1978-02-10,37.0512,-94.8315,Organic,2822,46
445,Claudine McCullough,claudine.mccullough@yahoo.com,Montgomery,AL,36105,1992-01-19,32.3356,-86.3083,Affiliate,2966,32
446,Tre Balistreri,tre-balistreri@hotmail.com,Dayton,OH,45432,1966-12-09,39.7339,-84.0507,Organic,3174,58
447,Demario Hand,demario-hand@yahoo.com,White Oak,GA,31568,1973-02-26,30.9974,-81.9071,Affiliate,3040,51
448,Darian Cremin,cremin-darian@hotmail.com,Mathias,WV,26812,1967-08-12,38.9633,-78.9354,Organic,2436,57
449,Zetta Nitzsche,zetta.nitzsche@gmail.com,Donna,TX,78537,1980-12-21,26.1594,-98.0375,Organic,2981,44
450,Sincere Waters,waters-sincere@yahoo.com,Kingston,OK,73439,1992-02-25,33.9896,-96.7605,Affiliate,2973,32
451,Vernice Schmitt,vernice-schmitt@hotmail.com,Tupper Lake,NY,12986,1994-07-03,44.1882,-74.4322,Twitter,3205,30
452,Dawn Goldner,dawn-goldner@yahoo.com,Ovid,CO,80744,1979-02-10,40.8811,-102.412,Affiliate,2487,45
453,Evangeline Reichert,reichert-evangeline@yahoo.com,Lewistown,MT,59457,1981-03-29,47.0569,-109.169,Facebook,2549,43
454,Bobby Kessler,kessler.bobby@yahoo.com,La Fayette,AL,36862,1978-10-23,32.8089,-85.4291,Facebook,3012,46
455,Leonie Crona,leonie-crona@gmail.com,Valier,MT,59486,1959-01-20,48.2668,-112.12,Twitter,2867,65
456,Rogelio Turner,turner.rogelio@yahoo.com,Burlington Junction,MO,64428,1997-01-31,40.4162,-95.0136,Affiliate,2457,27
457,Marguerite Huels,marguerite-huels@hotmail.com,Ola,ID,83657,1966-01-22,44.1239,-116.302,Facebook,3095,58
458,Elvera Lowe,elvera.lowe@yahoo.com,Graysville,AL,35073,1991-07-10,33.6648,-87.0007,Twitter,2156,33
459,Anissa Schuppe,anissa.schuppe@yahoo.com,Corry,PA,16407,1992-08-21,41.8986,-79.7401,Facebook,2815,32
460,Laisha West,west.laisha@yahoo.com,Clarkesville,GA,30523,1994-07-22,34.6712,-83.4926,Twitter,2984,30
461,Sid Mills,mills.sid@gmail.com,Evergreen,CO,80439,1994-06-14,39.6994,-105.413,Organic,2618,30
462,Ellie Oberbrunner,ellie-oberbrunner@yahoo.com,Livingston,TN,38570,1999-05-28,36.4451,-85.3115,Affiliate,2461,25
463,Marianna Smith,marianna-smith@gmail.com,New Baltimore,MI,48047,1991-03-14,42.6925,-82.7824,Affiliate,3064,33
464,Madaline Hilll,madaline.hilll@yahoo.com,Larned,KS,67550,1960-02-06,38.1628,-99.1111,Twitter,2908,64
465,Haskell Graham,haskell.graham@gmail.com,Madras,OR,97741,1964-06-08,44.7408,-121.128,Twitter,2123,60
466,Myles Deckow,myles.deckow@gmail.com,Indiantown,FL,34956,1963-05-18,27.0134,-80.4234,Twitter,2576,61
467,Chanel Dare,dare-chanel@hotmail.com,Nebraska City,NE,68410,1966-11-18,40.5804,-95.8412,Affiliate,2647,58
468,Jensen Swaniawski,swaniawski.jensen@hotmail.com,Qulin,MO,63961,1968-06-28,36.5003,-90.3246,Facebook,2557,56
469,Letha Murazik,murazik-letha@gmail.com,Wheeler,IL,62479,1973-06-28,39.0543,-88.2794,Organic,2370,51
470,Enrico Graham,enrico-graham@gmail.com,Greenwood,DE,19950,1995-05-06,38.8214,-75.5476,Twitter,2320,29
471,Oral Balistreri,balistreri-oral@yahoo.com,Loomis,CA,95650,1985-07-15,38.8149,-121.136,Facebook,3001,39
472,Gregory Brakus,gregory.brakus@hotmail.com,Williamston,NC,27892,1967-07-14,35.8386,-77.164,Twitter,2474,57
473,Tyler Cremin,cremin.tyler@gmail.com,Riesel,TX,76682,1983-11-24,31.3769,-96.982,Affiliate,2187,41
474,Reyes Kulas,kulas-reyes@yahoo.com,De Motte,IN,46310,1962-05-31,41.174,-87.2217,Facebook,2438,62
475,Murray Gleason,murray.gleason@gmail.com,Tyler,TX,75706,1969-12-27,32.4463,-95.3827,Twitter,2201,55
476,Adalberto Terry,adalberto.terry@yahoo.com,Comer,GA,30629,1966-05-10,34.032,-83.1427,Affiliate,3146,58
477,Winfield Donnelly,winfield.donnelly@hotmail.com,Raleigh,NC,27612,1979-08-15,35.8516,-78.703,Google,2240,45
478,Vergie Borer,vergie.borer@hotmail.com,Madison,VA,22727,1966-02-05,38.3572,-78.4128,Twitter,2890,58
479,Molly Klocko,molly-klocko@gmail.com,Copper Center,AK,99573,1968-08-17,61.2668,-145.283,Organic,2841,56
480,Crawford Rath,crawford.rath@gmail.com,Attica,IN,47918,1969-08-15,40.2483,-87.2575,Organic,2713,55
481,Keely O'Conner,conner-o-keely@gmail.com,Mountain Home,AR,72653,1973-04-06,36.3139,-92.3731,Google,2171,51
482,Dolores Bins,dolores.bins@yahoo.com,Carthage,AR,71725,1994-10-13,34.0787,-92.6511,Twitter,2426,30
483,Magnolia O'Keefe,keefe-o-magnolia@hotmail.com,Young Harris,GA,30582,1996-04-06,34.949,-83.8017,Twitter,2685,28
484,Mayra Olson,mayra-olson@yahoo.com,Saint Joe,IN,46785,1970-03-31,41.3284,-84.8139,Google,2241,54
485,Marcelina Moore,marcelina-moore@yahoo.com,Mount Jackson,VA,22842,1964-12-15,38.7268,-78.6578,Twitter,2392,60
486,Morris Beahan,beahan-morris@yahoo.com,Verona,MO,65769,1983-11-25,36.8178,-93.8447,Facebook,2492,41
487,Mike Abernathy,abernathy.mike@hotmail.com,Havelock,NC,28532,1989-10-21,34.8868,-76.7908,Affiliate,2417,35
488,Terrence Emmerich,terrence.emmerich@yahoo.com,Bolivar,OH,44612,1977-10-29,40.6506,-81.4353,Affiliate,2656,47
489,Amya Homenick,homenick-amya@yahoo.com,Township of Branch,MI,49402,1993-06-29,44.051,-86.0815,Organic,2597,31
490,Tyreek Runolfsdottir,runolfsdottir-tyreek@gmail.com,Columbia,CT,6237,1980-01-17,41.718,-72.3043,Affiliate,3173,44
491,Justina Kassulke,kassulke.justina@hotmail.com,Sandpoint,ID,83864,1997-01-28,48.468,-116.42,Organic,2471,27
492,Janelle Rutherford,janelle.rutherford@hotmail.com,Canton,TX,75103,1975-05-29,32.5672,-95.7324,Google,2683,49
493,May Kerluke,kerluke.may@hotmail.com,Webster,NY,14580,1963-07-28,43.2237,-77.5279,Facebook,2699,61
494,Abdullah Fisher,fisher.abdullah@hotmail.com,Tennille,GA,31089,1972-09-13,32.824,-82.9221,Google,2773,52
495,Kamron Senger,senger-kamron@hotmail.com,Columbus,MS,39701,1987-01-16,33.2958,-88.4409,Google,3169,37
496,Corine Rosenbaum,rosenbaum.corine@yahoo.com,Hope Mills,NC,28348,1989-04-16,34.9713,-78.9892,Affiliate,3102,35
497,Jennings Ferry,jennings.ferry@gmail.com,Chocowinity,NC,27817,1997-11-25,35.463,-77.1134,Google,2536,27
498,Nickolas Schuster,schuster.nickolas@yahoo.com,Myrtle,MO,65778,1978-06-09,36.508,-91.3048,Affiliate,2325,46
499,Loyal Wintheiser,loyal.wintheiser@yahoo.com,Wise River,MT,59762,1985-11-19,45.9088,-113.265,Organic,2825,39
500,Madge Friesen,madge-friesen@gmail.com,Yates Center,KS,66783,1991-04-27,37.8205,-95.6682,Organic,2475,33
501,Orval Hettinger,hettinger.orval@hotmail.com,Marthasville,MO,63357,1986-10-25,38.7003,-91.2954,Google,2774,38
502,Maddison Morar,morar-maddison@hotmail.com,Akron,OH,44313,1987-04-26,41.1058,-81.5641,Organic,2481,37
503,Devan Skiles,skiles-devan@gmail.com,Pomona,KS,66076,1985-09-13,38.6242,-95.4528,Organic,2345,39
504,Carlotta Kessler,kessler-carlotta@yahoo.com,Greenfield,IA,50849,1978-07-26,41.3111,-94.4146,Affiliate,2230,46
505,Isac Cole,isac-cole@gmail.com,Millport,NY,14864,1981-05-02,42.2346,-76.8371,Organic,2332,43
506,Lenore Cummerata,cummerata-lenore@hotmail.com,Escanaba,MI,49829,1979-09-27,45.7456,-87.181,Organic,2290,45
507,Ava Jaskolski,ava-jaskolski@hotmail.com,Davenport,WA,99122,1987-02-07,47.5002,-118.141,Facebook,3131,37
508,Breana Weber,weber-breana@hotmail.com,Marietta,IL,61459,1981-06-01,40.5178,-90.4267,Facebook,3029,43
509,Ignatius Watsica,ignatius.watsica@gmail.com,Brentwood,TN,37027,1967-11-19,36.0346,-86.8441,Facebook,2536,57
510,Arnoldo Cronin,cronin.arnoldo@gmail.com,Marshalltown,IA,50158,2000-03-29,41.9659,-92.8931,Facebook,2750,24
511,Lemuel Schamberger,lemuel.schamberger@yahoo.com,Sutherland,IA,51058,1969-10-06,42.9234,-95.4129,Facebook,2329,55
512,Oliver Jacobs,jacobs-oliver@yahoo.com,Paron,AR,72122,1995-12-07,34.7953,-92.77,Google,2202,29
513,Loma Monahan,monahan.loma@yahoo.com,Morrison,TN,37357,1966-07-08,35.6537,-85.979,Organic,2609,58
514,Glen Johnston,johnston-glen@yahoo.com,Shepherd,MT,59079,1988-08-11,45.9292,-108.355,Google,2324,36
515,Hassan Hansen,hassan.hansen@gmail.com,Dalhart,TX,79022,1971-10-04,36.1896,-102.328,Facebook,2866,53
516,Aurelie Moore,moore-aurelie@yahoo.com,Santa Rosa,CA,95407,1995-11-13,38.4167,-122.754,Twitter,2833,29
517,Blanche Rau,rau-blanche@yahoo.com,Wild Rose,WI,54984,1985-02-25,44.2226,-89.0943,Facebook,2423,39
518,Granville Gaylord,gaylord-granville@yahoo.com,Athens,MI,49011,1978-05-08,42.0922,-85.26,Affiliate,2865,46
519,Marcelle Rippin,marcelle-rippin@gmail.com,Avery,TX,75554,1993-10-05,33.5235,-94.7969,Affiliate,2922,31
520,Lamont Hoeger,lamont.hoeger@gmail.com,Livingston Manor,NY,12758,1959-11-14,42.0261,-74.8045,Facebook,2377,65
521,Ubaldo Becker,becker-ubaldo@gmail.com,Choteau,MT,59422,1978-05-13,47.7415,-112.317,Organic,2944,46
522,Theodore McGlynn,theodore.mcglynn@hotmail.com,Froid,MT,59226,1975-10-06,48.2485,-104.606,Facebook,3036,49
523,Deonte Hoeger,hoeger.deonte@hotmail.com,Mc Leod,MT,59052,1975-04-28,45.4597,-110.198,Twitter,3188,49
524,Naomi Jacobs,naomi.jacobs@yahoo.com,Moseley,VA,23120,1964-05-10,37.4279,-77.7575,Google,2379,60
525,Ethan Rutherford,ethan.rutherford@gmail.com,Superior,WI,54880,1996-04-13,46.667,-92.0632,Affiliate,3199,28
526,Tyrique Deckow,tyrique.deckow@yahoo.com,Pratt,KS,67124,1991-12-16,37.6066,-98.7394,Organic,2394,33
527,Marjorie O'Conner,o.conner.marjorie@yahoo.com,Dow City,IA,51528,1979-12-25,41.9584,-95.5466,Affiliate,2191,45
528,Jennyfer Hermiston,hermiston.jennyfer@gmail.com,Mountain Home,AR,72653,1960-01-13,36.3496,-92.2922,Twitter,2638,64
529,Haylie Johns,johns-haylie@hotmail.com,Ovid,CO,80744,1999-07-17,40.8956,-102.409,Twitter,2170,25
530,Camila Kautzer,camila.kautzer@yahoo.com,Berlin,WI,54923,1988-09-12,43.9301,-88.9493,Facebook,2960,36
531,Dixie Adams,dixie-adams@yahoo.com,Uniontown,AL,36786,1973-08-11,32.4174,-87.5387,Google,2966,51
532,Barrett Brekke,barrett.brekke@gmail.com,Burkburnett,TX,76354,1970-05-21,34.0997,-98.6866,Twitter,2124,54
533,Jennie Kuhlman,kuhlman-jennie@hotmail.com,Harlowton,MT,59036,1963-09-01,46.4754,-110.078,Twitter,2814,61
534,Lacey Balistreri,balistreri.lacey@gmail.com,Calhan,CO,80808,1983-05-19,39.0383,-104.174,Affiliate,2372,41
535,Will Kozey,kozey.will@yahoo.com,Jamestown,CA,95327,2000-03-01,37.8618,-120.626,Affiliate,2731,24
536,Daisha Boyer,boyer-daisha@gmail.com,Kingsley,MI,49649,1965-05-06,44.5041,-85.5458,Affiliate,2846,59
537,Keith Rosenbaum,keith-rosenbaum@hotmail.com,Pettigrew,AR,72752,1995-01-06,35.7394,-93.6382,Google,3135,29
538,Charlie Bartoletti,charlie-bartoletti@yahoo.com,Athelstane,WI,54104,1970-06-28,45.5285,-88.3064,Google,2701,54
539,Daren Huels,huels.daren@gmail.com,Buffalo,WY,82834,1985-02-27,44.4657,-106.68,Facebook,2379,39
540,Mallory Kirlin,mallory-kirlin@hotmail.com,Pioneertown,CA,92268,1990-12-26,34.2037,-116.591,Google,2329,34
541,Alycia Collins,alycia.collins@yahoo.com,Leesburg,GA,31763,1960-03-06,31.7197,-84.1848,Facebook,2849,64
542,Gertrude Labadie,gertrude-labadie@yahoo.com,Woodland,NC,27897,1966-08-03,36.3605,-77.2234,Organic,2259,58
543,Hadley Watsica,watsica-hadley@hotmail.com,Tannersville,NY,12485,1961-04-08,42.1887,-74.1356,Google,2406,63
544,Emmie Mertz,emmie-mertz@yahoo.com,Fredericksburg,TX,78624,1984-06-18,30.0086,-98.8264,Affiliate,2767,40
545,Aylin Wisozk,wisozk-aylin@yahoo.com,Summerville,GA,30747,1977-11-30,34.3911,-85.304,Google,2551,47
546,Richmond Bode,bode.richmond@gmail.com,Gray Court,SC,29645,1979-04-29,34.5994,-82.1511,Affiliate,2318,45
547,Sim Gusikowski,sim.gusikowski@gmail.com,Bowie,TX,76230,1996-12-15,33.5783,-97.7866,Affiliate,2876,28
548,Liliane Hayes,hayes.liliane@gmail.com,Warsaw,IN,46582,1986-05-12,41.2856,-85.9986,Facebook,2453,38
549,Andy Rempel,rempel.andy@hotmail.com,Solon Springs,WI,54873,1980-10-24,46.3689,-91.9849,Affiliate,2860,44
550,Kristoffer Keebler,keebler-kristoffer@gmail.com,Fairbanks,AK,99712,1970-01-04,65.0807,-148.034,Google,2304,54
551,Oceane Runte,oceane.runte@yahoo.com,Orient,SD,57467,1977-07-14,44.7639,-99.293,Organic,3115,47
552,Isidro Schuppe,schuppe-isidro@yahoo.com,Chadwick,MO,65629,1972-05-02,36.9156,-92.9577,Affiliate,2174,52
553,Briana Koss,briana.koss@hotmail.com,Wray,CO,80758,1973-06-08,40.3416,-102.314,Affiliate,2133,51
554,Robin Rohan,rohan-robin@hotmail.com,Waterloo,WI,53594,2000-03-16,43.0951,-88.9769,Facebook,2525,24
555,Coty Kertzmann,kertzmann-coty@hotmail.com,Weippe,ID,83553,1992-12-14,46.2974,-115.962,Organic,2941,32
556,Percy Padberg,percy.padberg@gmail.com,Danville,IL,61832,1974-05-21,40.1748,-87.6572,Organic,2912,50
557,Enola Bayer,enola.bayer@yahoo.com,Verona,IL,60479,1994-03-10,41.2536,-88.5248,Google,2267,30
558,Alexandria Schowalter,alexandria-schowalter@yahoo.com,Valley,AL,36854,1969-01-28,32.7908,-85.1438,Google,3150,55
559,Aylin Haley,haley-aylin@hotmail.com,Terre Haute,IN,47802,1991-06-03,39.4164,-87.3482,Facebook,2940,33
560,Earl Erdman,erdman.earl@gmail.com,Preston,MD,21655,1963-01-04,38.7276,-75.9416,Affiliate,2728,61
561,Brooks Shields,brooks.shields@gmail.com,Fields,OR,97710,2000-01-30,42.0223,-118.623,Organic,2516,24
562,Samson Hauck,hauck.samson@gmail.com,Pine River,MN,56474,1978-08-18,46.7163,-94.5646,Facebook,2494,46
563,Tristin Lebsack,lebsack-tristin@yahoo.com,Bladen,NE,68928,1997-04-01,40.2912,-98.5722,Organic,3093,27
564,Lura Gutmann,gutmann-lura@hotmail.com,Athens,WI,54411,1987-06-11,45.0784,-90.1627,Facebook,3038,37
565,Letha Streich,letha-streich@yahoo.com,Dyersburg,TN,38024,1980-06-15,36.0159,-89.4317,Facebook,2868,44
566,Jessy Spinka,spinka-jessy@gmail.com,Wilton,ND,58579,1981-08-13,47.3139,-100.706,Twitter,2975,43
567,Rossie Mann,mann-rossie@gmail.com,Boscobel,WI,53805,1988-08-07,43.113,-90.603,Twitter,2500,36
568,Jay Strosin,jay-strosin@gmail.com,Power,MT,59468,1995-06-22,47.7939,-111.603,Facebook,3129,29
569,Griffin Kling,griffin.kling@hotmail.com,Maggie Valley,NC,28751,1987-12-29,35.5423,-83.0691,Organic,2453,37
570,Zoila Armstrong,armstrong.zoila@yahoo.com,Wilmington,DE,19809,1960-08-01,39.7719,-75.49,Affiliate,3191,64
571,Micaela Ebert,micaela-ebert@gmail.com,Wing,ND,58494,1970-04-20,47.1503,-100.238,Affiliate,2607,54
572,Sheldon Braun,sheldon.braun@gmail.com,Claxton,GA,30417,1987-07-18,32.1289,-81.932,Affiliate,3002,37
573,Rachelle Schmidt,rachelle.schmidt@gmail.com,Winamac,IN,46996,1964-08-22,41.0532,-86.6947,Twitter,2623,60
574,Jakob Hansen,jakob.hansen@gmail.com,Argusville,ND,58005,1963-08-31,47.1096,-96.9333,Facebook,3166,61
575,Demetris Carroll,demetris.carroll@hotmail.com,Henrietta,NY,14467,1978-09-01,43.0566,-77.6116,Google,2363,46
576,Hulda Greenfelder,greenfelder-hulda@gmail.com,Baker,MT,59313,1997-09-04,46.5603,-104.094,Google,2842,27
577,Orion Wilkinson,orion-wilkinson@gmail.com,Rome City,IN,46784,1984-09-09,41.4766,-85.3776,Facebook,2561,40
578,Estrella Goyette,estrella.goyette@hotmail.com,Hessmer,LA,71341,1981-09-10,31.1026,-92.1802,Organic,3015,43
579,Austyn Klein,klein.austyn@yahoo.com,Barrington,NH,3825,1995-02-25,43.2555,-71.0672,Facebook,2992,29
580,Kitty Hilll,kitty.hilll@gmail.com,Bandera,TX,78003,1994-03-11,29.7981,-99.1927,Affiliate,2956,30
581,Quinten Goyette,quinten-goyette@gmail.com,Worthington,MN,56187,1980-12-13,43.701,-95.6141,Google,2811,44
582,Eriberto Cruickshank,eriberto.cruickshank@hotmail.com,Corn,OK,73024,1993-10-12,35.3965,-98.833,Organic,2587,31
583,Issac O'Kon,o-issac-kon@hotmail.com,Hull,IA,51239,1973-09-09,43.2322,-96.1972,Twitter,3168,51
584,Nia Franecki,franecki-nia@yahoo.com,Charlotte,IA,52731,1972-06-29,41.951,-90.4608,Google,3123,52
585,Stefan Reilly,reilly-stefan@yahoo.com,Mountain Home,ID,83647,1958-12-08,43.1132,-115.79,Google,2731,66
586,Rosalyn Bauch,bauch.rosalyn@yahoo.com,Round Lake,MN,56167,1988-11-02,43.602,-95.412,Facebook,2880,36
587,Deven Bruen,deven.bruen@hotmail.com,Fort Loramie,OH,45845,1982-12-22,40.3189,-84.3659,Organic,2394,42
588,Porter Tromp,porter.tromp@yahoo.com,Weir,MS,39772,1975-12-24,33.2467,-89.228,Affiliate,2254,49
589,Lazaro Luettgen,lazaro.luettgen@yahoo.com,Gorham,ME,4038,1998-01-15,43.7452,-70.4604,Twitter,2205,26
590,Cleo Ziemann,ziemann-cleo@yahoo.com,Joy,IL,61260,1984-06-09,41.21,-90.937,Affiliate,2913,40
591,Dahlia Turner,turner.dahlia@yahoo.com,Battle Lake,MN,56515,1997-03-30,46.3126,-95.6099,Twitter,2296,27
592,Manley Bogan,bogan-manley@gmail.com,Olivia,MN,56277,1999-10-19,44.7068,-95.0367,Twitter,2608,25
593,Christa Streich,christa-streich@gmail.com,Lunenburg,MA,1462,1994-01-16,42.5533,-71.6918,Twitter,2846,30
594,Marlon Howell,howell.marlon@yahoo.com,Clyo,GA,31303,1962-02-16,32.5326,-81.2773,Facebook,2575,62
595,Darlene Rohan,darlene-rohan@yahoo.com,Longmont,CO,80504,1985-11-25,40.2045,-104.994,Twitter,3061,39
596,Dale Macejkovic,dale.macejkovic@hotmail.com,Merrill,IA,51038,1991-05-03,42.714,-96.4093,Google,2409,33
597,Stan Schaefer,schaefer-stan@yahoo.com,Sutton-Alpine,AK,99674,1971-10-09,61.739,-148.912,Facebook,3136,53
598,Lon Friesen,lon-friesen@yahoo.com,Bedford,PA,15522,1975-08-23,39.9081,-78.533,Organic,2357,49
599,Ebba Christiansen,christiansen.ebba@gmail.com,Leonidas,MI,49066,1999-02-10,41.9989,-85.371,Facebook,2561,25
600,Tatum Keeling,tatum.keeling@gmail.com,Sciota,IL,61475,1999-05-19,40.5753,-90.7321,Organic,3006,25
601,Donavon Lowe,donavon.lowe@gmail.com,Ferdinand,IN,47532,1992-05-11,38.2434,-86.8013,Organic,3076,32
602,Kaela Kunze,kaela-kunze@gmail.com,Glennallen,AK,99588,1995-07-05,61.9923,-146.769,Twitter,2819,29
603,Shyanne Wyman,wyman.shyanne@yahoo.com,Thermopolis,WY,82443,1989-06-27,43.6943,-107.813,Google,2334,35
604,Carlee Champlin,carlee.champlin@gmail.com,Plevna,MT,59344,1982-05-30,46.3835,-104.512,Google,2937,42
605,Arturo Marquardt,marquardt.arturo@yahoo.com,Dibble,OK,73031,1992-07-11,35.0062,-97.6164,Google,2525,32
606,Abdullah Balistreri,abdullah-balistreri@hotmail.com,Sandisfield,MA,1255,1976-04-02,42.0631,-73.1617,Google,3015,48
607,Laurel Pfannerstill,laurel.pfannerstill@gmail.com,Casper,WY,82609,1981-04-10,42.7726,-106.153,Facebook,2131,43
608,Melisa Grimes,grimes.melisa@gmail.com,Fairlee,VT,5045,1965-12-03,43.9508,-72.172,Google,2999,59
609,Opal Herman,herman-opal@hotmail.com,Athens,WI,54411,1997-04-03,45.0691,-89.9062,Facebook,2963,27
610,Melisa DuBuque,dubuque.melisa@yahoo.com,Iroquois,SD,57353,1978-11-10,44.3253,-97.7446,Affiliate,3051,46
611,Brice Stark,stark.brice@gmail.com,Ute,IA,51060,1999-10-07,42.0139,-95.7326,Facebook,3028,25
612,Virginia Prohaska,virginia-prohaska@yahoo.com,Iuka,MS,38852,1980-07-28,34.9341,-88.2798,Twitter,3075,44
613,Kaden Lakin,kaden.lakin@hotmail.com,Revillo,SD,57259,1958-07-16,45.1066,-96.5885,Organic,3163,66
614,Geovanni Miller,miller-geovanni@hotmail.com,Leakesville,MS,39451,1967-03-12,31.0521,-88.7486,Affiliate,3116,57
615,Aubree Dibbert,aubree-dibbert@hotmail.com,Blue Springs,MS,38828,1979-05-04,34.3852,-88.9017,Facebook,2505,45
616,Rex Thiel,rex-thiel@gmail.com,Amory,MS,38821,1969-09-29,33.9226,-88.4446,Facebook,3013,55
617,Isai Frami,frami.isai@yahoo.com,Idalia,CO,80735,1981-04-28,39.5818,-102.111,Affiliate,2687,43
618,Avis Dickinson,dickinson.avis@hotmail.com,Canyon Lake,TX,78133,1962-12-12,29.8811,-98.1813,Twitter,2249,62
619,Vince Balistreri,balistreri.vince@gmail.com,New Baltimore,MI,48047,1990-03-21,42.6835,-82.745,Twitter,2128,34
620,Shyann Boehm,boehm.shyann@yahoo.com,Greenland,MI,49929,1980-06-09,46.7782,-89.0932,Google,2350,44
621,Jazlyn Mohr,mohr.jazlyn@yahoo.com,Carrington,ND,58421,1981-04-20,47.4426,-99.0177,Google,2441,43
622,Augusta Lueilwitz,lueilwitz.augusta@gmail.com,Loma,MT,59460,1977-02-03,48.0306,-110.581,Affiliate,2140,47
623,Olen Emmerich,emmerich-olen@hotmail.com,Caribou,ME,4736,1974-01-21,46.8403,-67.9674,Affiliate,3193,50
624,Abbie Parisian,parisian.abbie@yahoo.com,Pilot Hill,CA,95664,1983-07-01,38.8302,-121.026,Organic,2776,41
625,Bulah Eichmann,bulah.eichmann@yahoo.com,Buffalo Center,IA,50424,1976-02-19,43.4787,-93.8897,Twitter,3007,48
626,Columbus Swaniawski,swaniawski-columbus@gmail.com,Lyerly,GA,30730,1989-01-10,34.3978,-85.389,Facebook,2131,35
627,Efrain Spencer,spencer.efrain@gmail.com,Yerington,NV,89447,1998-08-16,39.094,-119.152,Google,2995,26
628,Leopoldo Schmeler,schmeler-leopoldo@hotmail.com,Monticello,KY,42633,1967-12-06,36.8575,-84.7524,Twitter,2584,57
629,Yessenia Pagac,pagac-yessenia@yahoo.com,West Liberty,KY,41472,1967-08-01,37.9001,-82.9974,Facebook,3113,57
630,Felicia Runte,runte.felicia@yahoo.com,Aguilar,CO,81020,1983-06-10,37.4792,-104.558,Organic,2699,41
631,Blanca Schiller,schiller.blanca@gmail.com,Mount Croghan,SC,29727,1986-02-04,34.6932,-80.3078,Affiliate,2972,38
632,Ben Padberg,ben.padberg@yahoo.com,Jay,OK,74346,1983-07-24,36.4651,-94.7639,Facebook,2859,41
633,Conrad Renner,conrad.renner@gmail.com,Temple,TX,76502,1959-04-02,31.1154,-97.417,Google,2318,65
634,Oswaldo Heaney,oswaldo.heaney@gmail.com,Sedalia,CO,80135,1981-06-13,39.3489,-105.177,Affiliate,3069,43
635,Rahul Kreiger,kreiger.rahul@hotmail.com,Brooklyn,MS,39425,1960-02-27,30.979,-89.0645,Twitter,2892,64
636,Danny Pollich,pollich.danny@gmail.com,Mill Run,PA,15464,1968-04-22,39.9507,-79.3951,Google,2656,56
637,Maximillian Zboncak,maximillian-zboncak@hotmail.com,Bremen,IN,46506,1983-01-12,41.4759,-86.2339,Twitter,2750,41
638,Lilian Roberts,roberts-lilian@yahoo.com,West York,IL,62478,1990-11-05,39.1524,-87.7098,Facebook,2641,34
639,Cortney Swift,cortney-swift@gmail.com,Burlington,KS,66839,1987-09-02,38.1203,-95.7667,Facebook,3180,37
640,Rafael Nikolaus,rafael.nikolaus@gmail.com,Glennallen,AK,99588,1987-05-01,62.1031,-145.967,Organic,2490,37
641,Blaise Legros,blaise.legros@hotmail.com,Tenino,WA,98589,1974-10-28,46.901,-122.865,Twitter,3205,50
642,Sonny Beahan,beahan.sonny@hotmail.com,Aurora,OH,44202,1976-02-07,41.3225,-81.3751,Twitter,2452,48
643,Darrick Sawayn,darrick.sawayn@gmail.com,Roosevelt,WA,99356,1965-08-16,45.9752,-120.4,Google,2647,59
644,Florida Hackett,hackett.florida@yahoo.com,Garden Prairie,IL,61038,1990-08-22,42.1935,-88.7105,Affiliate,2318,34
645,Ike Sporer,sporer-ike@gmail.com,Gilead,ME,4217,1988-12-13,44.4017,-70.961,Facebook,2637,36
646,Leopold Beer,beer.leopold@gmail.com,Sunman,IN,47041,1976-07-07,39.1859,-85.137,Organic,2326,48
647,Alison Paucek,paucek.alison@hotmail.com,Anchorage,AK,99587,1989-03-31,60.8018,-148.959,Google,2810,35
648,Mckenzie Walter,walter.mckenzie@hotmail.com,Kodiak,AK,99615,1992-02-13,57.6967,-152.547,Google,2124,32
649,Leanne Jacobs,leanne.jacobs@hotmail.com,Bartow,FL,33830,1966-07-13,27.86,-81.9351,Google,2300,58
650,Gia Abernathy,abernathy-gia@gmail.com,Kadoka,SD,57543,1960-01-17,43.9623,-101.393,Affiliate,2815,64
651,Mallie Lang,mallie-lang@yahoo.com,Prineville,OR,97754,1964-04-04,44.309,-120.791,Google,2879,60
652,Kitty Kohler,kitty-kohler@hotmail.com,Kaycee,WY,82639,1965-09-02,43.7022,-106.456,Facebook,2537,59
653,Shanie Spinka,shanie.spinka@gmail.com,Alpine,TX,79830,1990-03-23,30.0099,-102.6,Facebook,3173,34
654,Amya Turner,turner-amya@hotmail.com,Abilene,KS,67410,1991-06-23,39.0931,-97.2875,Twitter,2484,33
655,Shirley Okuneva,shirley-okuneva@yahoo.com,Greene,NY,13778,1997-12-01,42.3859,-75.8204,Affiliate,2230,27
656,Bettie Funk,funk.bettie@hotmail.com,Springfield,SC,29146,1959-11-08,33.5251,-81.2359,Organic,2492,65
657,Itzel Wunsch,wunsch.itzel@gmail.com,Lompoc,CA,93436,1988-02-14,34.5178,-120.427,Google,2647,36
658,Amiya Purdy,purdy-amiya@gmail.com,Markle,IN,46770,1994-02-14,40.8554,-85.3552,Google,2784,30
659,Wilford Bauch,bauch-wilford@gmail.com,Valentine,NE,69201,1998-12-18,42.5549,-100.721,Twitter,2378,26
660,Jacinto Price,price-jacinto@gmail.com,Boulder,UT,84716,1994-07-23,37.8871,-111.38,Organic,2778,30
661,Moriah Ziemann,moriah.ziemann@yahoo.com,Keldron,SD,57634,1962-11-30,45.8948,-101.871,Twitter,2973,62
662,Magali Willms,willms-magali@hotmail.com,Leoma,TN,38468,1960-09-10,35.0673,-87.2734,Affiliate,2812,64
663,Philip Fadel,fadel-philip@hotmail.com,Trapper Creek,AK,99683,1974-08-02,62.8627,-149.871,Organic,2530,50
664,Aidan Hagenes,aidan-hagenes@hotmail.com,Villisca,IA,50864,1960-04-28,41.0653,-94.9103,Twitter,2598,64
665,Petra Roob,roob.petra@hotmail.com,East Bend,NC,27018,1997-05-06,36.2285,-80.5179,Facebook,2124,27
666,Andrew Carroll,andrew-carroll@gmail.com,Craig,CO,81625,1998-12-18,40.4417,-107.505,Google,2789,26
667,Isaac Schultz,schultz.isaac@yahoo.com,Browerville,MN,56438,1972-05-20,46.1798,-94.7901,Facebook,3045,52
668,Rae Lindgren,lindgren-rae@hotmail.com,Farwell,NE,68838,1976-05-30,41.2328,-98.6899,Organic,2979,48
669,Dimitri Wisoky,dimitri-wisoky@yahoo.com,Glenmoore,PA,19343,1990-08-07,40.1117,-75.7011,Google,2150,34
670,Syble Collier,collier.syble@gmail.com,De Queen,AR,71832,1995-08-17,33.9629,-94.4646,Organic,2455,29
671,Hollie Schaefer,schaefer-hollie@hotmail.com,Great Falls,MT,59405,1969-09-02,47.2528,-111.251,Organic,2559,55
672,Robin Flatley,flatley.robin@gmail.com,Pontotoc,MS,38863,1966-02-27,34.2549,-88.9182,Affiliate,3170,58
673,Lorena Predovic,lorena-predovic@gmail.com,Seffner,FL,33584,1961-07-23,28.0167,-82.3266,Affiliate,3149,63
674,Evelyn Hahn,evelyn-hahn@hotmail.com,Goodell,IA,50439,1981-02-12,42.9727,-93.6408,Twitter,2437,43
675,Zelda Beatty,zelda-beatty@gmail.com,York,NE,68467,1968-10-01,40.8831,-97.7111,Facebook,2491,56
676,Aditya Schoen,aditya-schoen@gmail.com,Muleshoe,TX,79347,1961-02-18,33.9453,-102.877,Google,2399,63
677,Brown Blick,brown-blick@hotmail.com,Alexander City,AL,35010,1998-12-04,33.0287,-85.8203,Organic,2319,26
678,Laverne Stanton,stanton-laverne@hotmail.com,Old Harbor,AK,99643,1985-04-25,57.2031,-153.307,Google,3211,39
679,Theodora Mertz,theodora-mertz@gmail.com,Britt,IA,50423,1997-06-06,43.2272,-93.7495,Google,3107,27
680,Alfonzo Hansen,alfonzo-hansen@gmail.com,Tawas City,MI,48763,1979-04-03,44.2348,-83.5723,Facebook,2158,45
681,Myrtice Harris,harris-myrtice@gmail.com,Deering,NH,3244,1963-09-26,43.0574,-71.9012,Twitter,2147,61
682,Annetta Predovic,predovic.annetta@hotmail.com,Buffalo,IL,62515,1974-10-04,39.8053,-89.3807,Affiliate,2322,50
683,Reuben Koelpin,reuben-koelpin@yahoo.com,South Fulton,TN,38257,1982-11-03,36.464,-88.8211,Organic,2220,42
684,Jacklyn Gorczany,gorczany.jacklyn@yahoo.com,Backus,MN,56435,1980-06-30,46.8152,-94.6287,Organic,2549,44
685,Noel Tillman,tillman.noel@yahoo.com,Plano,TX,75024,1958-05-30,33.0933,-96.8011,Google,2169,66
686,Dortha White,white-dortha@yahoo.com,Floweree,MT,59440,1972-08-13,47.7854,-111.08,Organic,2936,52
687,Jamar Hickle,jamar-hickle@yahoo.com,Anaktuvuk Pass,AK,99721,1975-07-13,68.1408,-151.734,Google,2198,49
688,Omari Homenick,homenick-omari@hotmail.com,East Prairie,MO,63845,1960-11-07,36.6481,-89.2069,Affiliate,2468,64
689,Fern Carter,carter-fern@hotmail.com,Appomattox,VA,24522,1966-03-17,37.4663,-78.7874,Organic,2365,58
690,Giovani Thompson,giovani-thompson@hotmail.com,Brimfield,MA,1010,1992-09-10,42.1817,-72.2563,Twitter,3044,32
691,Don Bosco,bosco.don@gmail.com,Red Bud,IL,62278,1975-12-28,38.2352,-89.9299,Affiliate,2129,49
692,Janiya Lockman,lockman-janiya@hotmail.com,Williston,ND,58801,1968-11-29,48.0769,-103.92,Google,2562,56
693,Margot Keeling,margot.keeling@gmail.com,Washington Court House,OH,43160,1966-01-23,39.5134,-83.5543,Organic,2495,58
694,Unique Jerde,unique.jerde@yahoo.com,Ewing,KY,41039,1976-08-17,38.3767,-83.8655,Organic,2423,48
695,Nyasia Sporer,sporer-nyasia@hotmail.com,Clinton,NC,28328,1983-02-07,35.0987,-78.4441,Twitter,2467,41
696,Aidan Rodriguez,aidan.rodriguez@gmail.com,Provo,UT,84604,1972-01-06,40.2519,-111.671,Google,2645,52
697,Delta Jerde,delta.jerde@gmail.com,Paris,KY,40361,1991-11-18,38.2357,-84.3933,Organic,2485,33
698,Amanda Mosciski,amanda-mosciski@yahoo.com,Jessup,PA,18434,1997-02-06,41.4698,-75.5649,Organic,2724,27
699,Brielle Kertzmann,brielle.kertzmann@gmail.com,Quincy,IL,62305,1971-07-18,40.0073,-91.3793,Twitter,3206,53
700,Ezequiel Turcotte,turcotte-ezequiel@yahoo.com,Forest River,ND,58233,1975-11-20,48.2478,-97.4703,Twitter,2416,49
701,Pablo Lind,lind-pablo@gmail.com,Jacksonville,TX,75766,1962-10-04,31.8534,-95.2632,Facebook,2565,62
702,Nyasia Jakubowski,jakubowski.nyasia@yahoo.com,Portland,OR,97213,1990-11-24,45.5361,-122.607,Twitter,2827,34
703,Lilliana Parker,parker-lilliana@yahoo.com,Roulette,PA,16746,1966-10-28,41.8131,-78.1391,Facebook,3102,58
704,Stanley Stanton,stanton.stanley@gmail.com,Goliad,TX,77963,1975-08-30,28.7773,-97.3885,Affiliate,2204,49
705,Andres Kessler,kessler.andres@gmail.com,Mayfield,KY,42066,1981-03-10,36.7981,-88.5469,Google,2982,43
706,Ladarius Hyatt,ladarius-hyatt@yahoo.com,Ambler,AK,99786,1994-10-10,67.0845,-157.863,Facebook,2761,30
707,Thad Kuvalis,kuvalis-thad@gmail.com,Kelseyville,CA,95451,1996-08-24,38.8718,-122.763,Google,2844,28
708,Davin Jewess,jewess-davin@gmail.com,Williams,AZ,86046,1958-07-29,35.6171,-112.264,Facebook,2913,66
709,Erick O'Keefe,erick.keefe.o@gmail.com,Oxbow,OR,97840,1987-12-23,44.9725,-116.86,Organic,2257,37
710,Kali Hodkiewicz,kali-hodkiewicz@hotmail.com,Chuckey,TN,37641,1973-07-20,36.1923,-82.659,Facebook,2139,51
711,Ciara Green,ciara.green@yahoo.com,Brazil,IN,47834,1967-04-01,39.5196,-87.1212,Google,2219,57
712,Dalton Renner,renner-dalton@yahoo.com,Warrensville Heights,OH,44122,1979-11-23,41.4495,-81.539,Organic,2708,45
713,Waldo Bartell,bartell.waldo@yahoo.com,Mead,WA,99021,1979-08-11,47.7894,-117.275,Google,2931,45
714,Dakota Mante,mante-dakota@yahoo.com,Rexburg,ID,83440,1994-03-25,43.7183,-111.744,Google,2841,30
715,Lafayette Kertzmann,lafayette-kertzmann@yahoo.com,Keenesburg,CO,80643,1981-10-06,40.1237,-104.528,Twitter,3017,43
716,Ben Roob,roob-ben@gmail.com,Kilgore,NE,69216,1965-06-15,42.8496,-100.955,Facebook,3057,59
717,Sarai Deckow,sarai.deckow@hotmail.com,Clayton,IN,46118,1993-11-18,39.6905,-86.5832,Facebook,2246,31
718,Deon Gerlach,deon.gerlach@gmail.com,Lakota,ND,58344,1991-11-08,48.108,-98.4536,Google,2263,33
719,Odell McCullough,mccullough.odell@hotmail.com,Two Harbors,MN,55616,1974-01-02,47.0983,-91.8171,Twitter,2427,50
720,German Ankunding,german.ankunding@gmail.com,Flanagan,IL,61740,1994-11-09,40.9106,-88.8736,Google,2913,30
721,Charlene Bayer,charlene-bayer@hotmail.com,Dallas,SD,57529,1976-12-06,43.4111,-99.5686,Google,2395,48
722,Leila Considine,leila-considine@gmail.com,Harrison,NE,69346,1992-07-09,42.6302,-103.736,Facebook,3176,32
723,Shany Turcotte,turcotte.shany@hotmail.com,Imlay,NV,89418,1991-11-01,40.5366,-118.051,Organic,3140,33
724,Vito Haag,vito-haag@yahoo.com,Andrews,SC,29510,1978-07-06,33.4475,-79.6377,Organic,2875,46
725,Sedrick Harvey,harvey-sedrick@hotmail.com,Big Timber,MT,59011,1973-04-08,46.074,-110.042,Facebook,2993,51
726,Abelardo Weissnat,abelardo.weissnat@yahoo.com,Albany,OR,97321,1980-05-03,44.6354,-123.126,Affiliate,2901,44
727,Cecelia Rolfson,rolfson-cecelia@gmail.com,Cottonwood Falls,KS,66845,1999-01-03,38.3349,-96.547,Facebook,2210,25
728,Burnice Daugherty,daugherty-burnice@gmail.com,West End,NC,27376,1999-10-11,35.2986,-79.5483,Facebook,2455,25
729,Maurice Rippin,rippin.maurice@gmail.com,Bird Island,MN,55310,1990-02-22,44.635,-94.8743,Affiliate,2246,34
730,Arielle Mitchell,mitchell-arielle@hotmail.com,Wausau,WI,54403,1960-01-26,45.0184,-89.4576,Facebook,3197,64
731,Eldon Herman,eldon.herman@yahoo.com,Fowler,CO,81039,1997-06-23,38.0828,-104.138,Twitter,2800,27
732,Barry McKenzie,barry.mckenzie@hotmail.com,Hayti,SD,57241,1993-12-19,44.7462,-97.2243,Affiliate,3043,31
733,Jerry Stracke,jerry.stracke@hotmail.com,Columbia,MO,65201,1990-06-02,38.8438,-92.2123,Google,3021,34
734,Weldon McLaughlin,weldon.mclaughlin@yahoo.com,Creswell,OR,97426,1968-01-27,43.8787,-123.004,Twitter,3105,56
735,Taryn Klocko,klocko-taryn@hotmail.com,Porterville,CA,93257,1959-05-09,36.0675,-118.963,Affiliate,2541,65
736,Valerie Davis,davis-valerie@yahoo.com,Pembroke,VA,24136,1959-06-15,37.3539,-80.6311,Organic,3108,65
737,Hipolito Kulas,kulas-hipolito@yahoo.com,Jay,ME,4239,1984-02-22,44.5014,-70.1905,Organic,2858,40
738,Bonita Hoppe,bonita-hoppe@gmail.com,Kirkman,IA,51447,1970-05-25,41.7447,-95.2307,Facebook,3160,54
739,Catalina Smith,smith.catalina@yahoo.com,Troy,NC,27371,1959-02-01,35.4067,-79.9103,Twitter,3128,65
740,Aida Cruickshank,aida.cruickshank@hotmail.com,Baring,MO,63531,1965-12-12,40.2433,-92.2969,Affiliate,2225,59
741,Marcelo Ferry,marcelo-ferry@gmail.com,Anaktuvuk Pass,AK,99721,1966-05-16,68.1408,-151.734,Affiliate,2163,58
742,Garret Kulas,garret-kulas@hotmail.com,Black River,MI,48721,1961-02-27,44.7583,-83.3471,Twitter,2585,63
743,Stacy Considine,stacy-considine@yahoo.com,Talkeetna,AK,99676,1980-01-09,62.214,-149.954,Affiliate,3151,44
744,Reid Reilly,reid-reilly@hotmail.com,Indian Lake,NY,12812,1981-11-17,43.8346,-74.5498,Google,2926,43
745,Kurtis Parker,kurtis.parker@gmail.com,Grand View,ID,83624,1991-01-25,42.9446,-116.06,Affiliate,2863,33
746,Andre Stamm,andre.stamm@hotmail.com,New Auburn,WI,54757,1960-01-06,45.2701,-91.5852,Twitter,2844,64
747,Lexi Adams,lexi.adams@hotmail.com,Bullard,TX,75757,1999-04-26,32.139,-95.3808,Google,2992,25
748,Eden Jenkins,jenkins.eden@yahoo.com,Blacksburg,VA,24060,1962-02-05,37.2136,-80.5379,Organic,2649,62
749,Melissa Cormier,melissa.cormier@hotmail.com,Anderson,MO,64831,1962-08-25,36.6164,-94.5198,Affiliate,3146,62
750,Jermain Kohler,kohler.jermain@hotmail.com,Thomasville,GA,31757,1979-01-08,30.9335,-83.8215,Affiliate,2270,45
751,Eli Haag,eli.haag@hotmail.com,Ashland,MT,59003,1973-01-21,45.4286,-106.06,Affiliate,3106,51
752,Vivianne Roob,vivianne-roob@yahoo.com,Rhine,GA,31077,1963-03-16,32.0185,-83.2361,Affiliate,2396,61
753,Rebekah Lueilwitz,lueilwitz-rebekah@hotmail.com,Andrews,NC,28901,1959-07-11,35.2215,-83.8764,Google,3204,65
754,Ellsworth Watsica,watsica-ellsworth@hotmail.com,Nathrop,CO,81236,1958-05-31,38.7089,-106.297,Google,2134,66
755,Cedrick Kling,cedrick.kling@yahoo.com,Heart Butte,MT,59448,1987-09-26,48.248,-112.793,Twitter,2341,37
756,Kennedi Waters,waters.kennedi@hotmail.com,Staples,MN,56479,1966-08-06,46.2673,-94.8311,Twitter,2395,58
757,Teresa Hodkiewicz,teresa-hodkiewicz@hotmail.com,Bond,CO,80423,1995-12-03,39.8196,-106.649,Organic,2411,29
758,Dolly Bernhard,bernhard-dolly@gmail.com,Marianna,AR,72360,1997-08-13,34.673,-90.9358,Organic,2240,27
759,Nicole Walker,walker-nicole@yahoo.com,Hubbardton,VT,5733,1964-05-04,43.7393,-73.21,Organic,2528,60
760,Louie Willms,willms.louie@gmail.com,Cody,WY,82414,1966-10-07,44.4667,-109.646,Twitter,3142,58
761,Newton Klocko,klocko.newton@gmail.com,Mize,MS,39116,1967-07-02,31.8513,-89.5642,Affiliate,2916,57
762,Marc Schmitt,schmitt-marc@hotmail.com,Delta Junction,AK,99737,1958-05-16,64.1133,-145.715,Twitter,2609,66
763,Ezekiel McLaughlin,mclaughlin.ezekiel@yahoo.com,Waldoboro,ME,4572,1972-02-21,44.0843,-69.4247,Twitter,2833,52
764,Ike Keebler,keebler.ike@gmail.com,Clarinda,IA,51632,1994-06-27,40.8419,-95.0638,Affiliate,2972,30
765,Vicente Kessler,vicente-kessler@gmail.com,West Bloomfield Township,MI,48323,1980-09-15,42.5752,-83.4226,Google,2422,44
766,Zula Boehm,zula.boehm@hotmail.com,Iola,KS,66749,1983-02-09,37.9001,-95.4401,Organic,2548,41
767,Clementina Johnston,johnston.clementina@gmail.com,Ontario,OR,97914,1961-08-25,44.2111,-116.98,Organic,3156,63
768,Schuyler Hills,hills-schuyler@gmail.com,Wyalusing,PA,18853,1989-05-20,41.6971,-76.2647,Facebook,2437,35
769,Maverick Roob,maverick-roob@hotmail.com,Little America,WY,82929,1973-03-09,41.5178,-109.786,Affiliate,2272,51
770,Jay Bruen,jay-bruen@yahoo.com,Richland,OR,97870,1993-07-14,44.7673,-117.247,Twitter,2335,31
771,Kevon Morar,kevon.morar@yahoo.com,Drumright,OK,74030,1961-05-25,35.9429,-96.5973,Affiliate,2201,63
772,Santa Harvey,santa.harvey@gmail.com,Rathdrum,ID,83858,1973-11-12,47.8302,-116.903,Twitter,2454,51
773,Willis Kuvalis,kuvalis-willis@yahoo.com,Dos Palos,CA,93620,1987-07-22,37.0261,-120.708,Affiliate,2941,37
774,Celestino Bernhard,celestino-bernhard@yahoo.com,Richardton,ND,58652,2000-02-19,46.7897,-102.307,Affiliate,2308,24
775,Osvaldo Steuber,steuber.osvaldo@hotmail.com,Martinsville,IL,62442,1974-02-11,39.4219,-87.8772,Organic,2964,50
776,Clemens Hansen,clemens.hansen@gmail.com,Delbarton,WV,25670,1962-08-20,37.7549,-82.1158,Organic,2920,62
777,Mozell Frami,mozell.frami@gmail.com,Forestport,NY,13338,1968-07-15,43.6115,-75.1007,Organic,2439,56
778,Lavina Schultz,schultz.lavina@hotmail.com,Newfield,NJ,8344,1992-06-23,39.5496,-74.9843,Affiliate,2138,32
779,Carrie Heidenreich,heidenreich.carrie@gmail.com,Wauneta,NE,69045,1969-03-07,40.4987,-101.462,Google,2627,55
780,Fleta Leuschke,leuschke-fleta@yahoo.com,Chula,MO,64635,1996-10-24,39.8844,-93.4423,Affiliate,2207,28
781,Muriel Labadie,labadie.muriel@yahoo.com,Zephyr,TX,76890,1964-10-11,31.6453,-98.7932,Affiliate,2988,60
782,Iva Waelchi,waelchi.iva@yahoo.com,Rolla,MO,65401,1969-03-11,37.8124,-91.8097,Facebook,3120,55
783,Shayne Crona,crona-shayne@gmail.com,Judith Gap,MT,59453,1963-10-03,46.6247,-109.985,Facebook,2745,61
784,Felton Keebler,felton.keebler@gmail.com,Silas,AL,36919,1965-05-04,31.7721,-88.3061,Twitter,3006,59
785,Jewell Wolf,wolf-jewell@yahoo.com,Hawkins,WI,54530,1982-10-24,45.5133,-90.7531,Twitter,2535,42
786,Karine Mante,karine.mante@gmail.com,Brandy Station,VA,22714,1997-03-25,38.532,-77.9146,Google,2971,27
787,Dina Wolf,wolf.dina@yahoo.com,Broxton,GA,31519,1978-07-24,31.7273,-82.869,Facebook,2723,46
788,Conner Windler,conner.windler@gmail.com,Aguilar,CO,81020,1996-07-30,37.303,-104.807,Google,2387,28
789,Cierra Kuvalis,kuvalis-cierra@yahoo.com,Hayes,SD,57537,1972-04-01,44.7079,-101.117,Affiliate,2184,52
790,Eudora Renner,eudora-renner@gmail.com,Grantville,GA,30220,1960-04-20,33.1993,-84.7878,Twitter,2904,64
791,Amina O'Reilly,o.reilly.amina@gmail.com,Sanford,NC,27330,1982-03-11,35.5321,-78.9971,Organic,2931,42
792,Maximillia Ebert,maximillia.ebert@hotmail.com,Tunnelton,WV,26444,1961-12-01,39.332,-79.8101,Facebook,2170,63
793,Estrella Reichert,estrella.reichert@hotmail.com,Nara Visa,NM,88430,1981-11-17,35.5339,-103.061,Twitter,2365,43
794,Elody Cormier,elody-cormier@hotmail.com,Sandyville,WV,25275,1958-06-16,38.8727,-81.6926,Twitter,2245,66
795,Vada West,west-vada@hotmail.com,Elm Creek,NE,68836,1959-10-18,40.7866,-99.4129,Affiliate,2707,65
796,Giovanna Tillman,tillman.giovanna@hotmail.com,Endeavor,WI,53930,1976-12-10,43.7286,-89.5407,Organic,2769,48
797,Gretchen Muller,gretchen.muller@hotmail.com,Meadville,PA,16335,1970-04-11,41.6161,-80.1679,Google,3053,54
798,Arden Jast,arden.jast@yahoo.com,New Riegel,OH,44853,1988-06-24,41.0487,-83.274,Facebook,3176,36
799,Eudora Greenholt,greenholt.eudora@gmail.com,Arcadia,WI,54612,2000-03-31,44.3048,-91.4397,Organic,2546,24
800,Ransom Murphy,murphy.ransom@gmail.com,Register,GA,30452,1987-11-20,32.375,-81.9161,Facebook,2465,37
801,Lavon Mante,mante-lavon@hotmail.com,Oakley,MI,48649,1971-07-18,43.1902,-84.2902,Organic,2430,53
802,Lavada Kuhic,lavada-kuhic@gmail.com,Easton,CT,6612,1968-03-24,41.2769,-73.332,Google,2136,56
803,Stewart Marks,stewart.marks@gmail.com,Lorenzo,TX,79343,2000-04-03,33.6118,-101.574,Organic,2782,24
804,Verna Davis,verna.davis@hotmail.com,Iota,LA,70543,1998-04-06,30.4023,-92.47,Google,2145,26
805,Lewis Doyle,doyle-lewis@gmail.com,Lakeville,IN,46536,1981-02-01,41.5195,-86.2736,Google,2453,43
806,Nichole Stanton,stanton.nichole@yahoo.com,Comanche,TX,76442,1967-02-10,31.9334,-98.6479,Affiliate,2155,57
807,Juanita Altenwerth,juanita-altenwerth@hotmail.com,Columbus,MT,59019,1998-07-15,45.6637,-109.102,Organic,3177,26
808,Grady Raynor,grady.raynor@hotmail.com,Unadilla,GA,31091,1992-02-28,32.2872,-83.7645,Facebook,2682,32
809,Francesco Grant,grant-francesco@hotmail.com,Levering,MI,49755,1993-09-16,45.6369,-84.8047,Facebook,2370,31
810,Keon Dickinson,dickinson-keon@hotmail.com,Fort Morgan,CO,80701,1995-09-06,40.3157,-103.782,Facebook,2152,29
811,Grant Breitenberg,breitenberg-grant@gmail.com,Sonora,TX,76950,1985-11-04,30.3465,-100.577,Affiliate,2943,39
812,Vincenza Wunsch,wunsch-vincenza@hotmail.com,Camarillo,CA,93010,1975-02-04,34.2315,-119.048,Twitter,2428,49
813,Roman Walker,walker-roman@hotmail.com,Parkin,AR,72373,1980-12-20,35.3203,-90.587,Affiliate,2738,44
814,Miguel McGlynn,miguel.mcglynn@hotmail.com,Grafton,MA,1536,1981-11-09,42.2477,-71.6782,Facebook,2763,43
815,Aniya Langosh,langosh-aniya@hotmail.com,Anaktuvuk Pass,AK,99721,1973-09-17,68.1408,-151.734,Organic,3038,51
816,Luisa Swaniawski,swaniawski-luisa@hotmail.com,Le Raysville,PA,18829,1984-05-31,41.8742,-76.2111,Facebook,3191,40
817,Nova Leuschke,leuschke-nova@yahoo.com,Genesee,PA,16923,1966-08-01,41.9779,-77.8008,Affiliate,3123,58
818,Eladio Parisian,parisian.eladio@gmail.com,Kathleen,GA,31047,1965-05-24,32.5076,-83.6624,Organic,2657,59
819,Jaime Hauck,hauck.jaime@gmail.com,Ravenden Springs,AR,72460,1963-11-09,36.3514,-91.2165,Affiliate,2290,61
820,Garett Hegmann,hegmann.garett@gmail.com,Blairs,VA,24527,1980-12-14,36.7168,-79.3608,Facebook,2521,44
821,Haylie Bosco,bosco.haylie@hotmail.com,Greenfield,OH,45123,1983-07-10,39.4244,-83.3649,Affiliate,2875,41
822,Morton Funk,morton.funk@gmail.com,Yoder,CO,80864,1966-02-07,38.5942,-104.214,Affiliate,2972,58
823,Pattie Gutkowski,gutkowski-pattie@hotmail.com,Talmage,NE,68448,1987-07-09,40.5363,-96.0679,Twitter,3181,37
824,Justine Olson,olson-justine@gmail.com,Hollidaysburg,PA,16648,1970-03-04,40.5008,-78.2599,Organic,3096,54
825,Milton Baumbach,baumbach-milton@hotmail.com,Groton,SD,57445,1960-10-13,45.3564,-98.0547,Affiliate,2464,64
826,Jo Gusikowski,jo-gusikowski@hotmail.com,Midland,TX,79706,1978-11-08,31.9914,-101.92,Organic,3132,46
827,Idella Wehner,wehner-idella@yahoo.com,Gainesville,TX,76240,1975-08-21,33.6401,-97.2448,Facebook,2247,49
828,Irma Waters,irma.waters@yahoo.com,Summersville,KY,42782,1960-01-17,37.3465,-85.5961,Google,2853,64
829,Elva Herman,elva-herman@hotmail.com,Cosmos,MN,56228,1987-02-16,44.8919,-94.5994,Twitter,2869,37
830,Joshuah Gleichner,gleichner-joshuah@gmail.com,Sarles,ND,58372,1969-08-16,48.8774,-99.1223,Organic,2490,55
831,Marques Koch,koch.marques@gmail.com,Altheimer,AR,72004,1976-04-16,34.2052,-91.688,Affiliate,2722,48
832,Norberto Dach,norberto.dach@gmail.com,Garrison,MO,65657,1964-11-09,36.8629,-93.018,Affiliate,2801,60
833,Paxton Fay,paxton-fay@yahoo.com,Brainerd,MN,56401,1959-07-15,46.3152,-93.8694,Affiliate,2886,65
834,Haleigh Bayer,haleigh-bayer@yahoo.com,Terry,MT,59349,1985-10-18,46.948,-105.664,Twitter,2712,39
835,Gloria Conn,conn-gloria@yahoo.com,Cornell,WI,54732,1963-12-17,45.197,-91.288,Organic,2448,61
836,Janet Stiedemann,stiedemann-janet@hotmail.com,Petersville,AK,99688,1982-07-24,62.4575,-151.03,Twitter,2897,42
837,Bonita King,bonita-king@hotmail.com,Guffey,CO,80820,1974-02-08,38.7511,-105.531,Facebook,3077,50
838,Kristina Little,kristina.little@hotmail.com,Oxford,IN,47971,1996-06-15,40.5428,-87.2134,Organic,2547,28
839,Emelia Tromp,tromp.emelia@hotmail.com,Bedrock,CO,81411,1973-01-17,38.37,-108.918,Google,2376,51
840,Eusebio Eichmann,eichmann.eusebio@hotmail.com,Snohomish,WA,98290,1968-07-07,48.0325,-121.953,Organic,2941,56
841,Gudrun Blanda,blanda.gudrun@gmail.com,Cornelius,OR,97113,1967-10-12,45.4881,-123.005,Affiliate,2332,57
842,Kieran Roob,kieran-roob@yahoo.com,Kenai,AK,99611,1986-10-17,60.737,-151.205,Twitter,2659,38
843,Zackery Kuhn,zackery.kuhn@hotmail.com,Carter,MT,59420,1992-07-05,47.8003,-110.999,Affiliate,3002,32
844,Vida Crist,crist-vida@gmail.com,LaFayette,GA,30728,1964-05-18,34.646,-85.3579,Twitter,2182,60
845,Antwon Steuber,antwon.steuber@hotmail.com,Sunflower,MS,38778,1991-08-09,33.5398,-90.5841,Google,2734,33
846,Janiya Emard,emard-janiya@gmail.com,Raphine,VA,24472,1994-08-25,37.9783,-79.3201,Facebook,2659,30
847,Margarita Tromp,margarita-tromp@yahoo.com,Kincaid,KS,66039,1976-11-05,38.0567,-95.1344,Organic,2499,48
848,Tressie Willms,willms-tressie@hotmail.com,Portage,IN,46368,1961-05-29,41.5546,-87.1865,Facebook,2374,63
849,Misael Beier,beier-misael@yahoo.com,Bainbridge,GA,39817,1959-06-20,30.9258,-84.5847,Twitter,2620,65
850,Carolanne Upton,carolanne-upton@gmail.com,New Market,AL,35761,1968-12-03,34.9193,-86.4167,Organic,2420,56
851,Ryann Rice,ryann-rice@hotmail.com,Canadian,TX,79014,1975-05-19,35.8908,-100.374,Facebook,2443,49
852,Leon Labadie,leon-labadie@yahoo.com,Highwood,MT,59450,1966-09-29,47.5537,-110.675,Google,2991,58
853,Jacinthe Howell,howell.jacinthe@yahoo.com,Minden City,MI,48456,1976-09-20,43.713,-82.8248,Google,2825,48
854,Sigmund Mayer,mayer.sigmund@hotmail.com,Eufaula,AL,36027,1960-12-08,31.9416,-85.18,Twitter,2342,64
855,Keshaun Carroll,keshaun-carroll@hotmail.com,Allenwood,PA,17810,1974-07-14,41.1434,-77.0597,Google,2333,50
856,Laurie Sanford,laurie-sanford@hotmail.com,Perrysburg,NY,14129,1991-03-20,42.4569,-78.9825,Affiliate,3142,33
857,Rudy Larkin,rudy-larkin@yahoo.com,Caroline,WI,54928,1960-10-22,44.7556,-88.8731,Google,2231,64
858,Angie Hills,angie.hills@yahoo.com,Livingston,MT,59047,1962-11-03,45.7573,-110.259,Affiliate,2627,62
859,Julio Beatty,beatty.julio@gmail.com,Westfield,NJ,7090,1972-12-22,40.6438,-74.3455,Google,2345,52
860,Lesly Fay,fay-lesly@gmail.com,McFarland,CA,93250,1975-10-10,35.6203,-119.173,Google,2801,49
861,Dulce Conroy,conroy-dulce@gmail.com,Iuka,MS,38852,1964-12-03,34.7675,-88.1553,Facebook,2835,60
862,Electa Schroeder,electa-schroeder@yahoo.com,Plains,MT,59859,1965-12-03,47.3611,-114.788,Google,2345,59
863,Paolo Kshlerin,kshlerin-paolo@yahoo.com,Noble,LA,71462,1958-07-08,31.6978,-93.7427,Google,2515,66
864,Gunnar Hilpert,hilpert.gunnar@yahoo.com,Kissimmee,FL,34744,1971-01-09,28.2836,-81.3443,Twitter,2669,53
865,Dagmar Sawayn,dagmar-sawayn@gmail.com,Hayes Center,NE,69032,1989-09-14,40.5484,-100.898,Twitter,2277,35
866,Maybelle Romaguera,maybelle-romaguera@yahoo.com,Caliente,NV,89008,1990-01-31,37.6561,-114.497,Google,2865,34
867,Jeffery Frami,jeffery.frami@yahoo.com,Point Lay,AK,99759,1979-03-26,69.7419,-163.005,Affiliate,2977,45
868,Danny Oberbrunner,oberbrunner-danny@yahoo.com,Salvisa,KY,40372,1962-05-10,37.8792,-84.8322,Affiliate,2585,62
869,Candace Greenholt,candace-greenholt@gmail.com,Italy,TX,76651,1987-04-03,32.2026,-96.9183,Google,2545,37
870,Sigrid Denesik,denesik-sigrid@gmail.com,Toyah,TX,79785,1999-11-04,31.3024,-103.894,Organic,2975,25
871,Luis Mitchell,mitchell.luis@yahoo.com,Big Timber,MT,59011,1962-10-03,45.8478,-109.918,Organic,2786,62
872,Cedrick Larkin,larkin.cedrick@gmail.com,Westminster,SC,29693,1993-10-28,34.7147,-83.2255,Twitter,2450,31
873,Cory Tromp,tromp.cory@yahoo.com,Johnstown,NE,69214,1960-03-24,42.5941,-100.144,Twitter,2732,64
874,Johathan Ebert,johathan-ebert@yahoo.com,New Waverly,TX,77358,1973-12-24,30.543,-95.2862,Organic,2607,51
875,Trudie Muller,trudie-muller@gmail.com,Port St. Lucie,FL,34986,1983-07-06,27.3718,-80.391,Facebook,2611,41
876,Laurie Greenholt,laurie.greenholt@hotmail.com,Georgiana,AL,36033,1983-04-29,31.7543,-86.814,Google,3153,41
877,Larry Paucek,paucek-larry@hotmail.com,Fruitvale,ID,83612,1980-05-01,44.8286,-116.451,Affiliate,2227,44
878,Chanel Rippin,chanel.rippin@yahoo.com,Clinton,KY,42031,1969-07-20,36.6825,-88.8683,Facebook,2281,55
879,Merle Moen,merle.moen@yahoo.com,Orleans,NE,68966,1981-08-02,40.1728,-99.4659,Twitter,2967,43
880,Domingo Waters,waters.domingo@hotmail.com,Carthage,NC,28327,1963-09-30,35.3121,-79.578,Affiliate,3096,61
881,Kaya Schoen,kaya.schoen@yahoo.com,Starks,LA,70661,1965-05-01,30.2695,-93.649,Google,2954,59
882,Geovanny Schuster,schuster.geovanny@yahoo.com,Winchester,OH,45697,1991-12-12,38.8532,-83.6787,Organic,2485,33
883,Dennis McCullough,dennis.mccullough@yahoo.com,Johannesburg,MI,49751,1967-02-19,44.9182,-84.5124,Facebook,2951,57
884,Daron Parker,parker.daron@hotmail.com,Logan,IA,51546,1969-05-30,41.5769,-95.7388,Facebook,3061,55
885,Eldred Dietrich,eldred.dietrich@yahoo.com,Cedar City,UT,84720,1959-10-05,37.6402,-113.358,Facebook,3097,65
886,Howell Price,price-howell@hotmail.com,Ukiah,CA,95482,1977-10-05,39.1368,-123.341,Twitter,3187,47
887,Osbaldo Lueilwitz,lueilwitz.osbaldo@yahoo.com,Crooked Creek,AK,99575,1982-07-10,61.8699,-158.113,Affiliate,2979,42
888,Bud Bruen,bud.bruen@yahoo.com,Ostrander,OH,43061,1958-09-20,40.2588,-83.185,Organic,2392,66
889,Thea Gottlieb,thea.gottlieb@gmail.com,Wall Lake,IA,51466,1975-08-17,42.235,-95.132,Affiliate,2739,49
890,Loren Weimann,loren-weimann@yahoo.com,Mansfield,SD,57460,1997-07-28,45.2975,-98.6608,Google,2779,27
891,Destany Dietrich,destany.dietrich@yahoo.com,Nunda,SD,57050,1966-11-25,44.1826,-96.9977,Facebook,3153,58
892,Muhammad Kub,muhammad.kub@hotmail.com,Oneonta,AL,35121,1989-12-01,33.9292,-86.4875,Google,2569,35
893,Audie Hane,hane.audie@gmail.com,Savanna,IL,61074,1961-10-27,42.2031,-90.2385,Organic,3041,63
894,Rosalinda Cronin,cronin-rosalinda@gmail.com,Middletown,CA,95461,1976-02-19,38.7473,-122.437,Facebook,2220,48
895,Gage Stiedemann,stiedemann-gage@gmail.com,Cottonwood,ID,83522,1982-09-22,45.9997,-116.41,Google,2852,42
896,Christophe Durgan,christophe-durgan@gmail.com,Asheboro,NC,27205,1977-10-14,35.6316,-79.7428,Affiliate,2922,47
897,Mya Aufderhar,aufderhar-mya@hotmail.com,Nellysford,VA,22958,1976-06-14,37.8925,-78.9086,Twitter,3166,48
898,Cornelius Bogisich,cornelius-bogisich@hotmail.com,North Bangor,NY,12966,1999-04-05,44.7915,-74.3895,Twitter,2314,25
899,Samara Hegmann,samara-hegmann@yahoo.com,Gurley,NE,69141,1970-07-01,41.3518,-102.861,Twitter,2991,54
900,Kathryne Hoppe,hoppe.kathryne@gmail.com,New Underwood,SD,57761,1988-08-04,44.2674,-102.898,Organic,2533,36
901,Libbie Larkin,larkin-libbie@yahoo.com,Piermont,NH,3779,1983-02-15,43.9762,-72.0257,Affiliate,3136,41
902,Anjali Parker,anjali-parker@hotmail.com,Riverside,CA,92504,1994-05-04,33.9119,-117.403,Facebook,2316,30
903,Felicity Greenfelder,felicity-greenfelder@hotmail.com,Kosse,TX,76653,1959-03-22,31.3296,-96.6388,Facebook,2335,65
904,Tracey Denesik,tracey-denesik@gmail.com,Adrian,MN,56110,1962-09-30,43.6164,-96.0073,Facebook,2665,62
905,Delfina Orn,delfina-orn@yahoo.com,Jonesborough,TN,37659,1980-01-23,36.3584,-82.5068,Affiliate,2913,44
906,Dale Halvorson,halvorson.dale@gmail.com,Dixon,MT,59831,1970-10-19,47.3065,-114.326,Google,2868,54
907,Louie Corkery,louie.corkery@yahoo.com,Eldridge,MO,65463,1965-03-24,37.8837,-92.7506,Google,2565,59
908,Toby Yundt,toby.yundt@gmail.com,Lander,WY,82520,1969-08-16,42.9554,-108.876,Affiliate,2168,55
909,Sophie Blanda,sophie.blanda@hotmail.com,Cunningham,KS,67035,1990-02-20,37.6847,-98.3192,Google,3024,34
910,Jonas Von,von.jonas@hotmail.com,Wendover,KY,41775,1973-08-06,37.1193,-83.3545,Facebook,3194,51
911,Ivory McCullough,ivory-mccullough@yahoo.com,Melbourne,AR,72556,1961-08-03,36.0206,-91.7992,Google,2690,63
912,Rickie Vandervort,vandervort.rickie@yahoo.com,Lexington,TX,78947,1986-05-31,30.4685,-97.1747,Affiliate,3039,38
913,Destiney Ortiz,ortiz.destiney@hotmail.com,Caldwell,ID,83607,1990-02-23,43.6196,-116.78,Facebook,2990,34
914,Alfonzo Casper,casper-alfonzo@yahoo.com,Clare,IL,60111,1997-09-21,42.0019,-88.8321,Organic,3114,27
915,Dorian Predovic,dorian.predovic@gmail.com,Sallis,MS,39160,1967-12-02,32.9684,-89.7284,Organic,3217,57
916,Everette Kuphal,kuphal.everette@yahoo.com,Coleharbor,ND,58531,1985-04-18,47.5167,-101.311,Affiliate,2642,39
917,Franco Sauer,sauer-franco@yahoo.com,Coaldale,CO,81222,1997-02-28,38.3699,-105.754,Google,2298,27
918,Margret Johnston,johnston-margret@yahoo.com,Ree Heights,SD,57371,1965-11-24,44.295,-99.2056,Twitter,2470,59
919,Oscar Olson,oscar-olson@hotmail.com,Moorhead,MN,56560,1966-03-17,46.7837,-96.715,Organic,3171,58
920,Wilmer Volkman,volkman-wilmer@gmail.com,Tecumseh,OK,74873,1964-02-04,35.2325,-97.1234,Twitter,2861,60
921,Bryce Erdman,bryce-erdman@hotmail.com,Rush,CO,80833,1964-07-06,38.7197,-104.034,Organic,2998,60
922,Jeffry Grimes,jeffry-grimes@hotmail.com,Trego,WI,54888,1997-09-24,45.9914,-91.8777,Organic,3080,27
923,Conrad King,king.conrad@yahoo.com,Lordsburg,NM,88045,1958-06-07,32.3649,-108.642,Organic,3088,66
924,Agnes Braun,braun-agnes@yahoo.com,Lucedale,MS,39452,1959-02-24,30.9224,-88.7026,Facebook,2356,65
925,Archibald Lowe,archibald-lowe@hotmail.com,Burbank,CA,91505,1969-10-07,34.1874,-118.346,Facebook,2928,55
926,Burnice Doyle,doyle.burnice@gmail.com,Russell Springs,KY,42642,1958-05-18,37.0347,-84.9719,Twitter,3160,66
927,Laura Bahringer,bahringer-laura@yahoo.com,Arthur,NE,69121,1987-10-02,41.5615,-101.57,Google,2985,37
928,Madyson Vandervort,vandervort.madyson@yahoo.com,Trout,LA,71371,1977-08-12,31.7017,-92.1998,Google,2304,47
929,Winifred Runolfsson,runolfsson.winifred@gmail.com,Portal,ND,58772,2000-03-02,48.9377,-102.531,Organic,2377,24
930,Walker Harris,walker-harris@yahoo.com,Farmer City,IL,61842,1960-01-21,40.3199,-88.6031,Twitter,2600,64
931,Maye Rath,rath-maye@yahoo.com,Shaftsbury,VT,5262,1985-09-04,42.9773,-73.2045,Twitter,2375,39
932,Gaston Dicki,dicki.gaston@hotmail.com,Three Forks,MT,59752,1977-03-26,46.014,-111.35,Organic,2379,47
933,Aurelio Parker,parker-aurelio@hotmail.com,Lexington,TX,78947,1993-03-21,30.3555,-97.0776,Affiliate,3071,31
