,id,name,state,latitude,longitude,source,dayduration,age,total_spent_Doohickey,total_spent_Gadget,total_spent_Gizmo,total_spent_Widget,total_orders,discount_usage_proportion,email_provider
0,1,Hudson Borer,NE,40.7132,-98.526,Twitter,2684,38,189.5193,389.53549999999996,221.8629,1719.2326,11.0,0.2727272727272727,yahoo
1,2,Domenica Williamson,IA,41.5813,-92.6991,Affiliate,2500,57,,,,,,,yahoo
2,3,Lina Heaney,MN,46.1197,-92.8416,Facebook,2786,63,896.4755,126.91,695.0698,510.85540000000003,10.0,0.2,yahoo
3,4,Arnold Adams,CO,37.9203,-104.973,Google,2182,32,149.891,0.0,214.78970000000004,150.5928,4.0,0.25,gmail
4,5,Dominique Leffler,NY,42.349,-77.0567,Twitter,2716,50,0.0,0.0,332.208,0.0,1.0,0.0,hotmail
5,6,Rene Muller,LA,30.1515,-92.4862,Google,3064,41,215.3479,350.4764,0.0,50.1976,4.0,0.25,gmail
6,7,Roselyn Bosco,MS,31.2341,-88.5857,Facebook,2455,28,436.14750000000004,1186.8655,1094.7054,0.0,12.0,0.08333333333333333,hotmail
7,8,Aracely Jenkins,KS,37.4347,-94.6427,Facebook,2734,51,788.1284,882.7382000000001,154.6856,563.634,9.0,0.0,gmail
8,9,Anais Ward,IA,42.2979,-95.4674,Twitter,2313,25,0.0,148.6077,83.2338,0.0,2.0,0.0,gmail
9,10,Tressa White,OH,40.8007,-83.2838,Google,2371,56,147.58599999999998,476.4076,797.8199999999999,614.2712,14.0,0.21428571428571427,yahoo
10,11,Lolita Schaefer,IA,42.1394,-93.9824,Facebook,2521,42,,,,,,,hotmail
11,12,Ciara Larson,SD,44.9564,-97.2287,Facebook,2421,42,126.91,0.0,1358.2078000000001,283.3255,8.0,0.125,hotmail
12,13,Mustafa Thiel,CA,33.0817,-116.662,Facebook,2700,61,,,,,,,hotmail
13,14,Lavonne Senger,CA,39.6486,-121.934,Facebook,2431,61,,,,,,,yahoo
14,15,Bertrand Romaguera,AR,35.108,-92.0102,Twitter,2245,24,246.1716,403.24580000000003,274.0843,373.0512,6.0,0.16666666666666666,gmail
15,16,Khalid Pouros,AL,32.7043,-87.5414,Google,3195,63,545.5245,0.0,705.6437000000001,679.6302,9.0,0.1111111111111111,yahoo
16,17,Lora Cronin,OR,42.5049,-124.188,Organic,2900,34,117.17399999999999,1235.1378,1650.4260000000002,2401.4506,24.0,0.041666666666666664,gmail
17,18,Arely Pollich,OR,45.5549,-122.528,Affiliate,2849,34,0.0,2238.3258,156.3413,578.7945000000001,10.0,0.1,yahoo
18,19,Wyman Kertzmann,OR,42.3223,-123.324,Affiliate,2262,49,0.0,0.0,395.1128,184.4112,2.0,0.5,gmail
19,20,John Aufderhar,IA,41.467,-95.1012,Affiliate,2314,33,148.43959999999998,0.0,1175.1894,261.1638,8.0,0.25,yahoo
20,21,Angela Botsford,NE,40.9765,-98.1325,Twitter,2806,25,443.9508,0.0,302.72659999999996,228.1775,6.0,0.0,hotmail
21,22,Jeromy Smith,CA,38.5063,-122.188,Twitter,2692,57,184.891,220.81,238.05010000000001,1246.94,12.0,0.08333333333333333,yahoo
22,23,Candida Kiehn,GA,33.0855,-81.6764,Facebook,2858,53,155.82389999999998,135.3508,275.2377,451.2567,8.0,0.0,yahoo
23,24,Nya Weber,MN,47.1795,-93.6321,Facebook,2208,53,222.8093,666.9622,659.8493000000001,654.0165,10.0,0.2,gmail
24,25,Araceli Stiedemann,AR,36.048,-94.2027,Twitter,3101,45,,,,,,,yahoo
25,26,Dagmar Fay,NV,41.4721,-118.346,Organic,3053,62,,,,,,,gmail
26,27,Kyler Abshire,OH,41.1279,-83.536,Organic,2869,35,,,,,,,yahoo
27,28,Keon Cartwright,MS,34.4326,-88.5703,Affiliate,2839,33,,,,,,,hotmail
28,29,Broderick Lockman,OH,39.6955,-82.5027,Facebook,2206,34,0.0,517.6544,303.7734,447.27869999999996,6.0,0.3333333333333333,gmail
29,30,Desiree Walsh,AR,34.3125,-91.2082,Affiliate,2986,36,0.0,267.026,0.0,327.501,2.0,0.0,gmail
30,31,Cleora Hilll,MN,43.8069,-91.636,Affiliate,2139,29,,,,,,,hotmail
31,32,Jayden Hamill,CO,37.9478,-104.878,Google,2543,57,0.0,671.0016,54.5842,863.2524999999999,6.0,0.0,gmail
32,33,Alphonso Quigley,CO,40.3373,-106.798,Affiliate,2371,27,0.0,66.7932,0.0,250.8912,2.0,0.0,yahoo
33,34,Emilie Goyette,VA,38.6569,-77.9759,Organic,2221,58,1297.5313,238.5978,42.849,377.9041,9.0,0.3333333333333333,yahoo
34,35,Chelsey Schuppe,WI,42.5617,-88.6775,Twitter,2258,40,0.0,552.9624,591.966,0.0,5.0,0.0,hotmail
35,36,Kaley Ziemann,KS,38.6232,-98.8225,Organic,2678,57,1119.2658000000001,0.0,244.3012,539.4111,9.0,0.0,yahoo
36,37,Jaleel Collins,AZ,32.3736,-111.037,Facebook,2928,46,847.2586000000001,1172.7857999999999,825.0818999999999,466.7858,15.0,0.06666666666666667,gmail
37,38,Cecilia Stark,WV,38.4921,-82.0003,Facebook,3003,43,112.1022,168.9789,163.7526,609.8394,5.0,0.2,hotmail
38,39,Andreanne Hills,MN,43.9393,-96.1593,Organic,2507,36,248.5086,448.8741,166.4676,207.3516,8.0,0.125,yahoo
39,40,Elyssa Wolf,TX,29.9959,-97.559,Google,2899,46,1295.5448999999999,2333.8118,1716.7501000000002,732.8164999999999,25.0,0.08,hotmail
40,41,Bernadine Gorczany,IA,41.5396,-93.8748,Google,2455,40,75.9672,0.0,0.0,0.0,1.0,0.0,hotmail
41,42,Reyes Strosin,NY,44.1068,-75.9958,Google,2862,32,489.5768,246.6634,1072.5536,1423.7385,15.0,0.06666666666666667,yahoo
42,43,Chaya Volkman,IA,42.4388,-92.6714,Twitter,2809,62,,,,,,,hotmail
43,44,Carroll Kohler,IA,43.0246,-94.6294,Facebook,2960,25,665.2796,869.0319000000001,305.5508,0.0,9.0,0.1111111111111111,hotmail
44,45,Gilbert Abbott,IA,41.3221,-91.4749,Organic,3060,61,280.0195,176.609,246.92079999999999,626.9242,10.0,0.0,yahoo
45,46,Kaleb Swaniawski,MI,44.854,-84.8771,Twitter,2209,28,0.0,148.819,0.0,0.0,1.0,0.0,gmail
46,47,Bradley Green,AZ,35.3371,-111.364,Organic,2575,44,73.9918,816.1199,109.1684,360.0046,8.0,0.125,yahoo
47,48,Logan Weber,KS,39.988,-97.1458,Organic,2636,36,393.0489,1175.4017,1019.7057,1020.9553999999999,22.0,0.09090909090909091,yahoo
48,49,Zane Koelpin,MO,37.1383,-94.1122,Twitter,2339,57,2780.4746999999998,1596.987,436.6736,847.67,19.0,0.05263157894736842,gmail
49,50,Stacy Wisozk,ND,48.2384,-97.8694,Twitter,2575,57,891.7130999999999,116.9274,650.0242000000001,146.4352,9.0,0.1111111111111111,gmail
50,51,Alvah Wilderman,MS,33.4934,-89.8907,Twitter,2549,59,0.0,146.4078,0.0,45.4851,2.0,0.0,hotmail
51,52,Velma Little,GA,34.0571,-83.8153,Google,2449,42,490.5593,0.0,0.0,1048.7969,4.0,0.0,yahoo
52,53,Nikolas Romaguera,MS,34.2721,-89.1858,Facebook,2348,50,194.8725,674.5524,0.0,270.31550000000004,4.0,0.25,yahoo
53,54,Davin Stamm,NE,42.3241,-96.7454,Affiliate,2913,53,193.3838,321.7678,576.0931,235.38930000000002,14.0,0.0,yahoo
54,55,Holly Bayer,AL,32.1412,-85.6383,Affiliate,2678,37,,,,,,,gmail
55,56,Seth Willms,CO,40.5975,-102.531,Google,2780,55,487.4425,264.9135,887.0087000000001,756.7555,10.0,0.1,gmail
56,57,Jordy Haag,ID,46.5789,-116.538,Twitter,2584,45,737.0740999999999,880.4154,759.5646,1749.9645,22.0,0.045454545454545456,yahoo
57,58,Dawson Kovacek,KY,37.8206,-87.2487,Facebook,3176,41,937.4260999999999,529.4594,0.0,1617.3598,13.0,0.0,hotmail
58,59,Hugh Hahn,CO,37.423,-105.372,Organic,2950,58,227.747,422.4864,0.0,76.9533,4.0,0.25,hotmail
59,60,Edgardo Hackett,WV,38.1119,-82.5399,Twitter,3002,28,458.77750000000003,394.12260000000003,109.986,941.7743,14.0,0.0,hotmail
60,61,Lina Labadie,NC,35.6992,-81.0173,Google,3173,40,0.0,853.5764,58.9266,181.5484,5.0,0.2,gmail
61,62,Angelica Zulauf,FL,27.8721,-82.6132,Affiliate,2982,39,,,,,,,hotmail
62,63,Delilah Stoltenberg,IA,43.2109,-95.247,Organic,2291,27,456.2711,1013.2791000000001,668.0352,1239.0795,19.0,0.10526315789473684,yahoo
63,64,Terrence Grimes,NY,42.7235,-75.8565,Affiliate,2188,56,0.0,273.2964,0.0,146.4352,2.0,0.0,gmail
64,65,Arne O'Hara,SD,44.7004,-102.193,Facebook,2986,45,831.6198,2444.3442,2361.6566,4869.1384,37.0,0.08108108108108109,gmail
65,66,Gladys Dare,NY,43.764,-75.3819,Twitter,3085,30,736.1012000000001,314.3054,624.6152000000001,230.8599,10.0,0.2,gmail
66,67,Keyon Stroman,AK,56.2609,-158.702,Affiliate,2438,37,,,,,,,yahoo
67,68,Colton Hauck,IN,37.8902,-87.1323,Affiliate,3198,61,1138.4078,1337.761,745.0037,740.9634,24.0,0.0,yahoo
68,69,Anibal Hansen,IA,42.3421,-96.0378,Facebook,2719,55,123.0858,445.1054,464.6498,997.6126,11.0,0.09090909090909091,yahoo
69,70,Maya Berge,NE,42.1363,-99.8663,Twitter,3145,31,1984.4494,161.9378,1536.3158,1150.1066,22.0,0.09090909090909091,hotmail
70,71,Lillian Green,WY,44.5004,-109.286,Affiliate,3166,56,,,,,,,yahoo
71,72,Eula O'Connell,FL,30.6044,-85.0278,Facebook,2792,63,0.0,131.0018,1091.7746,122.07939999999999,8.0,0.25,hotmail
72,73,Stan Hessel,MA,42.5549,-72.6583,Organic,2383,56,72.74249999999999,672.4411,323.15610000000004,1167.7424,13.0,0.07692307692307693,hotmail
73,74,Jarret Marvin,IN,39.6294,-85.3744,Twitter,2178,56,1153.4818,2287.2265,2046.4842,1619.8766,31.0,0.06451612903225806,gmail
74,75,Isobel Fadel,SD,43.1848,-100.033,Affiliate,2422,30,0.0,0.0,0.0,82.7914,1.0,0.0,gmail
75,76,Amiya Considine,MS,32.9558,-89.0666,Google,2741,54,168.66899999999998,163.1536,509.0971,218.4372,7.0,0.2857142857142857,yahoo
76,77,Felipe Wilkinson,KY,37.1229,-83.9971,Organic,2557,36,0.0,0.0,1617.0403999999999,0.0,4.0,0.0,hotmail
77,78,Keenan Schaefer,MT,45.8382,-111.496,Affiliate,3196,31,,,,,,,gmail
78,79,Palma Volkman,FL,28.4121,-81.4378,Google,2178,34,,,,,,,gmail
79,80,Wilhelm Willms,TX,33.2513,-95.8858,Twitter,2551,32,261.613,544.5362,822.7176000000001,393.92760000000004,15.0,0.13333333333333333,gmail
80,81,Curt Baumbach,WA,48.149,-122.137,Facebook,2601,62,0.0,0.0,341.36299999999994,0.0,2.0,0.0,hotmail
81,82,Macy Olson,AR,36.2021,-94.431,Organic,3108,53,,,,,,,gmail
82,83,Theresa Kertzmann,MT,48.6053,-109.22,Facebook,3131,35,211.3068,0.0,46.7641,227.4255,3.0,0.0,hotmail
83,84,Dorris Frami,IN,40.8042,-86.014,Google,2637,61,213.1628,0.0,193.3072,0.0,3.0,0.0,hotmail
84,85,Vernice Steuber,MA,42.6392,-72.5028,Google,2455,53,246.83520000000001,1248.5411,572.2339000000001,356.054,12.0,0.0,yahoo
85,86,Oda Brakus,CA,40.296,-122.441,Twitter,2741,43,675.5291,640.4936,76.3877,593.8473,8.0,0.0,hotmail
86,87,Heber Vandervort,OR,42.168,-121.867,Google,2481,41,2366.0271000000002,1187.7567,1704.6776000000002,1523.8387,33.0,0.09090909090909091,hotmail
87,88,Breanne Schiller,CA,41.3503,-123.849,Google,2631,25,210.1533,601.2491,0.0,0.0,3.0,0.3333333333333333,gmail
88,89,Durward Ledner,MN,43.5904,-91.3315,Affiliate,2923,35,,,,,,,hotmail
89,90,Scarlett Beahan,AR,34.5052,-93.007,Twitter,2729,33,,,,,,,yahoo
90,91,Myrtis Labadie,TX,31.3694,-103.583,Google,2416,51,620.2523,549.924,563.6278,919.0799999999999,10.0,0.1,yahoo
91,92,Tatyana Steuber,SD,43.057,-97.9539,Twitter,2386,32,641.7762,400.5476,349.1652,140.272,8.0,0.125,hotmail
92,93,Broderick Wintheiser,AK,61.3721,-150.098,Affiliate,2988,63,,,,,,,yahoo
93,94,Armando Herzog,OR,44.7873,-120.935,Affiliate,2151,52,,,,,,,hotmail
94,95,Aurelie Spinka,WA,47.4154,-117.777,Organic,2340,64,212.48409999999998,1641.3564000000001,972.2363,1006.2426,21.0,0.19047619047619047,gmail
95,96,Ayden Heller,AR,33.2537,-92.1484,Organic,2492,61,,,,,,,yahoo
96,97,Quentin Leannon,CA,36.6456,-120.003,Facebook,2956,25,0.0,450.21500000000003,127.6815,0.0,3.0,0.0,hotmail
97,98,Lucas Beer,OH,38.8234,-82.6755,Google,3055,46,0.0,237.8634,250.7364,0.0,3.0,0.0,gmail
98,99,Alicia Cormier,ID,46.3318,-116.292,Organic,2707,65,224.8365,432.9134,338.1479,186.5256,7.0,0.0,yahoo
99,100,Nels Heaney,NY,43.713,-75.4391,Organic,2761,29,0.0,353.218,45.1817,624.0775000000001,5.0,0.0,yahoo
100,101,Beryl Reichel,MO,38.0319,-94.2752,Twitter,2927,60,319.5123,253.267,447.5317,269.1895,14.0,0.21428571428571427,yahoo
101,102,Kade Kub,MT,46.6588,-113.654,Facebook,2369,42,,,,,,,hotmail
102,103,Jayce Hilpert,ND,47.6128,-96.9682,Facebook,2836,46,,,,,,,yahoo
103,104,Briana Kuphal,TN,35.5989,-84.8353,Twitter,2313,33,,,,,,,yahoo
104,105,Carleton Effertz,CA,39.6136,-122.571,Facebook,3005,58,63.6598,220.231,31.3838,109.167,4.0,0.0,gmail
105,106,Rosina O'Connell,IN,39.8864,-86.5583,Google,3093,45,,,,,,,hotmail
106,107,Verla O'Kon,IA,42.7814,-94.8164,Affiliate,2593,38,29.5172,399.04380000000003,0.0,327.3487,4.0,0.5,gmail
107,108,Archibald Von,TX,33.5097,-96.0324,Facebook,2792,55,314.97339999999997,356.1093,1235.7783,410.71889999999996,14.0,0.07142857142857142,yahoo
108,109,Anais Dare,OH,40.9193,-81.5459,Google,2274,62,,,,,,,yahoo
109,110,Alexanne Wisoky,IN,40.8915,-87.29,Google,3100,57,,,,,,,yahoo
110,111,Augustine Runolfsdottir,LA,30.0178,-93.0878,Google,3100,27,636.4125,957.8914,2258.2884,1033.2519,20.0,0.15,gmail
111,112,Theresa Grant,CA,39.2802,-122.197,Google,2298,36,868.2342,105.5388,510.74210000000005,578.8907,8.0,0.0,yahoo
112,113,Kathleen Quitzon,MT,48.6554,-104.929,Google,2856,59,337.9258,1015.0973,715.8965000000001,690.9334,17.0,0.17647058823529413,yahoo
113,114,Wilbert Greenfelder,NJ,40.9225,-74.6548,Facebook,2625,58,,,,,,,gmail
114,115,Edwin Spencer,TX,29.1886,-95.4851,Facebook,2870,30,240.8408,76.8368,164.2784,1312.2329,10.0,0.0,gmail
115,116,Jimmie Doyle,MT,46.1367,-106.463,Facebook,2282,47,147.9836,58.3676,0.0,191.01,3.0,0.0,hotmail
116,117,Hollis Hettinger,PA,41.602,-80.3263,Organic,2970,30,370.7746,1346.7116,635.2378,594.4277,15.0,0.13333333333333333,gmail
117,118,Diego Will,TX,31.3799,-94.5246,Affiliate,2939,48,123.9572,342.8112,366.7864,984.1484,7.0,0.2857142857142857,yahoo
118,119,Makayla Heathcote,GA,34.2667,-83.7452,Facebook,2940,55,153.5553,166.983,0.0,286.515,3.0,0.0,gmail
119,120,Ashton Schmidt,MA,42.5938,-72.0211,Affiliate,2400,30,0.0,66.7932,0.0,0.0,1.0,0.0,yahoo
120,121,Trace Morar,SD,43.3302,-97.8519,Google,2873,53,,,,,,,yahoo
121,122,Brant Dare,CA,34.751,-119.427,Twitter,2816,40,545.0603,0.0,138.72299999999998,0.0,4.0,0.0,yahoo
122,123,Gerald Hermiston,PA,41.4659,-74.9889,Affiliate,2969,28,,,,,,,yahoo
123,124,Franco O'Reilly,ND,47.8845,-97.6237,Affiliate,2297,48,937.9318,650.3534,434.47400000000005,1352.6443,15.0,0.13333333333333333,yahoo
124,125,Geoffrey D'Amore,MI,46.358,-87.8291,Facebook,2260,53,112.1022,0.0,540.588,564.9475,5.0,0.2,yahoo
125,126,Kris Yost,TX,31.9218,-98.3241,Google,2607,38,,,,,,,hotmail
126,127,Hans Hagenes,IN,41.1491,-87.1797,Facebook,2861,58,,,,,,,hotmail
127,128,Jakob Kerluke,CO,37.7031,-106.374,Organic,2446,66,570.0767999999999,294.76570000000004,200.3624,404.1956,12.0,0.08333333333333333,gmail
128,129,Grace Casper,KY,37.263,-86.1622,Affiliate,2278,32,489.167,1006.2022,1077.0858,583.9775999999999,15.0,0.06666666666666667,hotmail
129,130,Myrna Hickle,WY,43.1533,-105.019,Google,2424,50,140.1022,267.6912,350.5352,67.13579999999999,8.0,0.125,hotmail
130,131,Melisa Walter,VA,38.5539,-78.8551,Facebook,2820,56,,,,,,,gmail
131,132,Kenna Bailey,WV,39.5619,-80.1619,Google,2372,63,0.0,0.0,212.6642,0.0,3.0,0.0,yahoo
132,133,Christopher Hilll,MT,47.6208,-105.389,Facebook,3022,43,,,,,,,hotmail
133,134,Orie Bartoletti,WA,47.3232,-119.309,Twitter,2270,28,691.7351,323.0664,537.876,350.25550000000004,6.0,0.0,yahoo
134,135,Rhett Mante,OH,41.4142,-81.9847,Affiliate,2164,34,0.0,0.0,86.7924,0.0,1.0,0.0,yahoo
135,136,Aliyah Stracke,TX,30.9388,-96.0701,Twitter,2334,49,328.293,501.656,295.1992,347.4838,11.0,0.0,gmail
136,137,Dayton Keebler,AR,33.4107,-93.8873,Google,2357,64,,,,,,,yahoo
137,138,Unique Runolfsson,MN,44.2975,-95.6825,Twitter,2408,49,1097.5542,1006.8243,1735.4965000000002,1101.6307,23.0,0.043478260869565216,yahoo
138,139,Norene Flatley,TX,29.1134,-97.021,Google,3054,29,110.2116,44.0462,115.7444,46.1028,5.0,0.2,yahoo
139,140,Walker Conroy,LA,30.3818,-91.1954,Affiliate,2746,63,0.0,684.1548,225.2586,548.2707999999999,8.0,0.25,gmail
140,141,Alvina Mertz,MN,48.2058,-94.5749,Facebook,2676,30,519.3519,696.4855,1265.2066,815.9131,17.0,0.11764705882352941,gmail
141,142,Sheridan VonRueden,WI,45.478,-92.5522,Organic,2313,31,106.1661,570.6774,119.9655,725.961,12.0,0.16666666666666666,hotmail
142,143,Melyna Koepp,NE,42.3286,-97.0178,Twitter,2129,64,,,,,,,gmail
143,144,Savanah Fahey,OH,38.828,-83.7551,Twitter,2847,32,,,,,,,gmail
144,145,Aryanna Hegmann,MI,44.7282,-83.4251,Facebook,2337,49,156.433,0.0,136.2495,366.4015,4.0,0.0,yahoo
145,146,Trenton Batz,MI,42.7991,-82.6671,Affiliate,2939,34,,,,,,,yahoo
146,147,Eileen Mayert,CA,35.1663,-118.477,Facebook,2702,30,59.0344,419.1251,474.20029999999997,46.1028,7.0,0.14285714285714285,gmail
147,148,Madie Bayer,MS,33.6873,-90.2063,Organic,2161,61,374.355,631.4476999999999,156.17000000000002,905.2755999999999,14.0,0.14285714285714285,hotmail
148,149,Madonna Kertzmann,VA,37.5746,-78.4726,Facebook,3034,29,75.9672,990.8399,784.8437,1590.3688,19.0,0.15789473684210525,hotmail
149,150,Henderson Hansen,SC,32.6821,-79.8918,Facebook,2386,65,1001.0926,2072.9121999999998,905.6942,568.2319,25.0,0.12,hotmail
150,151,Khalid McKenzie,WY,42.6072,-105.51,Twitter,2354,28,1759.8287,1589.5266000000001,2526.3216,968.3181,28.0,0.0,gmail
151,152,Ethan Kling,ND,46.037,-96.7549,Facebook,2920,54,325.6815,272.921,249.7848,111.336,4.0,0.0,yahoo
152,153,Lewis Hoppe,WI,44.9074,-92.6595,Google,2794,57,273.61310000000003,815.8606,767.4494,1665.6625,19.0,0.15789473684210525,gmail
153,154,Monserrate Schuppe,CO,40.548,-105.474,Organic,2850,35,1204.1493,1084.0457,848.6754000000001,1447.0882,31.0,0.06451612903225806,gmail
154,155,Trisha Hoeger,KY,37.7531,-87.9232,Affiliate,3182,42,1880.5394000000001,5541.165,2040.8048,3779.2657,36.0,0.1388888888888889,yahoo
155,156,Lolita Zemlak,IL,39.7321,-90.2452,Twitter,2271,31,316.442,637.842,355.74830000000003,0.0,6.0,0.0,yahoo
156,157,Ferne Tremblay,NC,35.9256,-76.3022,Affiliate,2154,26,,,,,,,yahoo
157,158,Maye Toy,MO,36.8939,-89.7838,Affiliate,3149,41,479.0756,348.3644,1453.8352,989.8441999999999,16.0,0.125,yahoo
158,159,Mattie Bayer,IA,41.8323,-91.2777,Organic,2180,42,835.6489,2036.4335,1218.9753,908.7822,16.0,0.125,hotmail
159,160,Jordane Pacocha,IN,40.9164,-86.0972,Twitter,3215,56,,,,,,,hotmail
160,161,Rupert Ruecker,AL,32.7826,-85.387,Organic,2714,39,259.2126,0.0,447.29319999999996,389.5368,7.0,0.14285714285714285,yahoo
161,162,Destiney Swaniawski,OH,41.1257,-82.8288,Twitter,2524,46,,,,,,,hotmail
162,163,Rowena Hodkiewicz,NE,41.3167,-101.014,Twitter,2949,31,,,,,,,yahoo
163,164,Sabryna Schumm,MN,47.0766,-93.5084,Facebook,3173,65,0.0,0.0,514.5165000000001,493.72349999999994,4.0,0.25,gmail
164,165,Pattie Senger,GA,31.2316,-84.5972,Facebook,2362,62,,,,,,,yahoo
165,166,Carmelo Carter,MI,45.363,-84.3085,Google,2820,61,,,,,,,gmail
166,167,Grady Sipes,NC,35.8229,-81.5748,Organic,2404,31,0.0,0.0,244.7934,77.3983,2.0,0.0,yahoo
167,168,Lucile Bednar,TX,30.3281,-96.7381,Google,2529,46,,,,,,,gmail
168,169,Arnaldo Bartell,NY,40.9747,-72.1968,Organic,2296,45,413.4015,1282.115,206.77769999999998,534.1842,14.0,0.14285714285714285,gmail
169,170,Mohammed Beatty,MT,45.8241,-104.309,Google,2185,54,0.0,1138.6109999999999,291.1181,1221.2618,9.0,0.2222222222222222,gmail
170,171,Raphael Wolff,MN,48.8885,-96.6728,Twitter,3094,29,,,,,,,hotmail
171,172,Maryam Weimann,TX,32.3126,-102.396,Facebook,2753,28,126.91,758.6744000000001,220.3571,277.1145,9.0,0.0,gmail
172,173,Howard Gaylord,OH,41.1678,-82.4357,Google,2605,44,2117.2488,171.4456,280.9605,763.6844,18.0,0.16666666666666666,hotmail
173,174,Quentin Cummings,CA,34.8981,-114.783,Facebook,2243,60,226.6256,350.4764,356.8086,0.0,3.0,0.0,gmail
174,175,Ernestina Gerhold,IA,41.9774,-94.0697,Twitter,2229,47,,,,,,,gmail
175,176,Rebeca Parisian,MI,42.053,-85.5144,Google,2915,32,359.6311,88.147,0.0,219.66000000000003,5.0,0.4,hotmail
176,177,Nikko Haag,IL,42.1729,-89.7459,Google,2574,46,369.1322,1143.8853,773.2436,490.70779999999996,11.0,0.2727272727272727,yahoo
177,178,Joanie Cruickshank,NY,42.0122,-79.0464,Organic,2596,51,,,,,,,yahoo
178,179,Van Windler,LA,31.6308,-91.5771,Google,2248,43,1071.9369000000002,595.3854,229.94119999999998,1064.1308,14.0,0.14285714285714285,hotmail
179,180,Wilma Roob,MO,37.1765,-94.0074,Google,2425,40,,,,,,,yahoo
180,181,Evalyn Moen,CA,36.7805,-120.066,Twitter,2190,56,0.0,185.2776,0.0,1344.6526,5.0,0.4,gmail
181,182,Dana Orn,TN,35.3407,-86.8555,Twitter,2364,62,,,,,,,hotmail
182,183,Rodolfo Larkin,ID,48.6032,-116.973,Google,2534,64,838.819,238.59340000000003,436.4565,1318.5547000000001,12.0,0.0,yahoo
183,184,Jesse Daugherty,PA,41.5309,-78.0837,Organic,2920,64,246.1716,0.0,532.3732,358.5219,5.0,0.2,yahoo
184,185,Audra Hane,WA,46.2864,-122.272,Organic,2444,52,,,,,,,gmail
185,186,Caitlyn Dach,GA,32.377,-81.5191,Organic,2889,60,55.1058,391.0857,0.0,484.6008,5.0,0.4,gmail
186,187,Bethel Schultz,TN,35.507,-89.3736,Google,2710,47,168.1533,34.0854,0.0,0.0,2.0,0.0,gmail
187,188,Leda Hammes,ND,46.6409,-102.897,Facebook,2935,26,,,,,,,gmail
188,189,Vita Cummings,MO,39.605,-91.3184,Google,2152,39,,,,,,,gmail
189,190,Oswald Corwin,PA,41.8804,-76.3495,Facebook,2930,49,0.0,170.033,0.0,0.0,1.0,0.0,gmail
190,191,Mustafa Steuber,WI,45.1939,-91.1803,Twitter,2199,50,,,,,,,gmail
191,192,Haleigh Funk,SC,32.845,-81.0811,Affiliate,3037,27,,,,,,,gmail
192,193,Berta Roob,MS,33.1326,-89.1537,Google,2227,34,,,,,,,yahoo
193,194,Destany Friesen,MO,37.1924,-92.5358,Google,3072,65,312.866,0.0,0.0,94.8025,2.0,0.0,hotmail
194,195,Green Carter,MO,37.9059,-94.5065,Organic,2345,65,,,,,,,hotmail
195,196,Alvena Legros,AZ,31.3797,-110.957,Organic,3214,50,,,,,,,hotmail
196,197,Aletha Kertzmann,OR,42.1608,-121.886,Affiliate,2260,35,295.9672,369.51849999999996,122.97,0.0,6.0,0.3333333333333333,gmail
197,198,Tamara Sawayn,IA,42.7741,-91.2382,Organic,2144,31,0.0,783.2361,186.0694,464.3898,10.0,0.0,yahoo
198,199,Adan Weissnat,OH,40.3965,-82.9793,Affiliate,2403,64,405.62760000000003,0.0,1668.7844,257.2937,8.0,0.0,yahoo
199,200,Thalia Hirthe,MN,44.4338,-95.3307,Organic,2225,33,825.8478,0.0,114.7532,0.0,6.0,0.16666666666666666,yahoo
200,201,Ford Larkin,AK,59.7546,-154.872,Facebook,2871,52,0.0,568.1647,319.243,364.6286,10.0,0.1,yahoo
201,202,Delphia Price,MO,37.28,-89.8329,Affiliate,3185,30,,,,,,,yahoo
202,203,Jessika Treutel,TX,30.0021,-94.2665,Affiliate,2350,43,187.596,334.1148,0.0,0.0,3.0,0.3333333333333333,yahoo
203,204,Enos Donnelly,TX,30.206,-99.0854,Twitter,2926,40,196.7586,319.3068,261.87390000000005,1240.1126,7.0,0.0,hotmail
204,205,Lowell Daniel,TN,36.1941,-87.9898,Facebook,2374,50,298.987,717.6461999999999,902.3011,581.0418999999999,11.0,0.18181818181818182,gmail
205,206,Marcelina Jast,NE,41.3769,-102.107,Google,2277,42,,,,,,,hotmail
206,207,Earnest Huels,AK,55.294,-160.679,Organic,2888,36,,,,,,,hotmail
207,208,Alisha Deckow,IL,37.8951,-89.0642,Affiliate,2474,37,455.30830000000003,526.8098,683.4893,1369.6158,18.0,0.05555555555555555,hotmail
208,209,Kyleigh Beier,IL,41.6864,-88.634,Organic,2802,56,,,,,,,gmail
209,210,Earnestine Prohaska,TX,29.277,-95.6042,Twitter,2841,38,0.0,0.0,623.0944999999999,269.1205,3.0,0.0,gmail
210,211,Quinn Stokes,SD,44.765,-99.0478,Organic,2723,48,0.0,420.73260000000005,2715.5978000000005,509.9654,7.0,0.0,hotmail
211,212,Jacinthe Rowe,CO,38.2021,-105.637,Organic,2528,57,,,,,,,gmail
212,213,Connie Davis,GA,34.716,-84.6347,Google,2327,60,231.1227,701.2234,1176.7316,464.63339999999994,12.0,0.08333333333333333,yahoo
213,214,Trace Daniel,MN,43.6342,-92.9346,Affiliate,2912,41,,,,,,,yahoo
214,215,Benton McCullough,TX,33.0769,-98.626,Organic,2373,32,123.0858,263.4854,347.922,870.6509,9.0,0.2222222222222222,hotmail
215,216,Josh Kilback,WY,44.6974,-109.61,Organic,3017,55,339.8308,184.98630000000003,479.90840000000003,379.389,15.0,0.06666666666666667,yahoo
216,217,Annabelle Schmeler,MN,44.0728,-95.7249,Facebook,2879,47,653.7717,258.1968,0.0,320.2388,6.0,0.0,gmail
217,218,Stan Jacobson,MI,43.5027,-84.5067,Affiliate,2416,57,851.3811,1441.8602999999998,421.80310000000003,852.7409,13.0,0.07692307692307693,gmail
218,219,Isaias Spencer,CT,41.7789,-71.8441,Google,2943,29,,,,,,,gmail
219,220,Bette Lang,SD,45.4232,-102.982,Organic,3130,53,,,,,,,gmail
220,221,Seth Goldner,IA,41.6073,-91.4476,Twitter,3012,59,145.3606,0.0,376.47029999999995,203.6068,5.0,0.0,yahoo
221,222,Theodora Dibbert,MN,43.8482,-95.908,Twitter,2662,59,281.5797,727.6796,1690.9306000000001,452.2983,13.0,0.07692307692307693,gmail
222,223,Frederik Bosco,AK,66.3724,-150.492,Twitter,2987,31,1395.1469,1415.2172,1409.6921,557.6551,19.0,0.05263157894736842,yahoo
223,224,Pamela Murray,OH,40.4771,-82.2604,Organic,2790,28,0.0,0.0,234.3096,739.4048,5.0,0.0,hotmail
224,225,Gunnar Doyle,MI,43.3396,-82.6755,Facebook,2292,29,443.9508,479.22860000000003,393.60450000000003,588.1001,11.0,0.18181818181818182,hotmail
225,226,Breana Thiel,MN,45.9052,-96.0413,Google,2514,40,374.5916,1055.3419000000001,1260.3319000000001,392.5517,20.0,0.0,gmail
226,227,Merl Yundt,TX,30.7337,-94.9438,Google,3207,60,,,,,,,yahoo
227,228,Estefania Leuschke,SC,34.0708,-79.2102,Twitter,2716,63,255.12060000000002,94.0842,0.0,40.7989,5.0,0.0,yahoo
228,229,Jewell Walker,KY,37.5307,-84.3436,Organic,2308,52,487.67040000000003,38.4184,1048.8328000000001,657.9628,11.0,0.09090909090909091,gmail
229,230,Stacy Adams,WI,45.0499,-91.9177,Affiliate,2577,36,,,,,,,gmail
230,231,Foster Marks,AZ,32.5546,-110.934,Affiliate,2983,25,,,,,,,yahoo
231,232,Magnolia Hansen,TX,29.2315,-98.5867,Twitter,3165,42,261.2259,833.1096,1142.2048,1205.9045999999998,13.0,0.15384615384615385,gmail
232,233,Ulices Feil,MS,31.7875,-88.7971,Affiliate,2993,34,776.7145,525.7146,497.4294,4575.3853,13.0,0.15384615384615385,hotmail
233,234,Bertrand Streich,AK,62.1421,-149.911,Google,2416,57,2110.3267,1035.3658999999998,1707.9274,844.2855999999999,22.0,0.045454545454545456,gmail
234,235,Jerrod King,OH,40.2322,-83.1745,Google,2413,65,254.1674,775.0572,1015.024,70.136,10.0,0.3,yahoo
235,236,Doris Spencer,SC,34.716,-82.4691,Twitter,2510,38,1468.0889,762.701,1832.4913000000001,691.172,21.0,0.14285714285714285,yahoo
236,237,Ernie Kohler,ME,43.6307,-70.8311,Facebook,2216,38,,,,,,,yahoo
237,238,Derrick Walker,PA,41.7372,-75.3112,Organic,3046,54,,,,,,,yahoo
238,239,Glenna Runolfsson,VA,37.0106,-79.5713,Facebook,2243,35,0.0,185.309,0.0,0.0,1.0,0.0,hotmail
239,240,Anais Douglas,MD,39.6547,-75.8952,Twitter,2715,40,626.1905999999999,1371.8015,864.0412,460.94739999999996,16.0,0.0625,hotmail
240,241,Christiana Boyle,MI,42.0185,-85.5428,Twitter,2745,36,,,,,,,gmail
241,242,Jaylin Hudson,MN,44.0019,-96.0484,Facebook,2355,32,0.0,419.376,0.0,0.0,1.0,0.0,yahoo
242,243,Paige Miller,MO,38.3909,-90.4222,Google,3008,25,453.7993,657.0540000000001,261.8061,0.0,9.0,0.0,gmail
243,244,Jessika Funk,SC,34.4423,-80.4121,Twitter,3065,64,365.2387,1029.6138,539.5188,1220.1398,9.0,0.2222222222222222,yahoo
244,245,Adonis Will,KY,37.6376,-86.3101,Organic,2765,34,471.1612,440.99890000000005,507.86289999999997,813.2222,17.0,0.29411764705882354,gmail
245,246,Francesca Gleason,WI,44.8002,-91.1807,Affiliate,2177,54,339.74399999999997,622.7312,1193.0616,105.48519999999999,17.0,0.11764705882352941,gmail
246,247,Stella Abbott,OH,39.6529,-83.3396,Google,3187,38,,,,,,,yahoo
247,248,Chanelle Cummings,KS,38.3649,-98.6733,Organic,2870,46,99.3405,0.0,81.5768,41.3957,3.0,0.0,yahoo
248,249,Neva Langworth,MN,45.7585,-94.4943,Twitter,2604,30,,,,,,,yahoo
249,250,Antwon Pagac,TX,32.1736,-98.9516,Google,2125,30,256.0272,603.0142,0.0,430.1602,6.0,0.0,yahoo
250,251,Dominique Bergnaum,NY,42.1824,-75.8417,Affiliate,2998,57,0.0,103.8826,282.166,487.3535,6.0,0.16666666666666666,gmail
251,252,Delphia Denesik,GA,34.4362,-83.2612,Google,2231,58,,,,,,,hotmail
252,253,Kyla Zemlak,SD,43.8941,-103.123,Twitter,2887,47,158.7512,954.3394000000001,771.5265,862.0129000000001,16.0,0.125,hotmail
253,254,Ramiro Green,IN,40.7652,-86.8898,Affiliate,2268,45,0.0,130.946,0.0,0.0,2.0,0.5,yahoo
254,255,Hudson Jacobi,VA,36.7088,-79.6794,Affiliate,2578,52,,,,,,,hotmail
255,256,Rupert Walsh,IL,39.2996,-89.8231,Twitter,2529,34,495.6309,1306.6518,888.583,0.0,12.0,0.16666666666666666,hotmail
256,257,Summer Aufderhar,NE,41.4699,-96.3151,Facebook,2881,64,,,,,,,hotmail
257,258,Melvin Upton,NY,42.8194,-74.4285,Facebook,2488,40,0.0,260.486,0.0,0.0,1.0,0.0,gmail
258,259,Krystel Boyle,WY,44.027,-104.733,Affiliate,2231,25,204.2904,79.1541,229.1631,780.8793000000001,6.0,0.16666666666666666,yahoo
259,260,Lexie Franecki,AR,33.4952,-93.9308,Affiliate,2493,47,610.5587,607.1338,221.6583,494.3727,13.0,0.0,gmail
260,261,Jaden Cole,MI,43.3446,-82.8239,Google,2996,51,1505.446,958.4426000000001,2035.4684000000002,908.4828,21.0,0.14285714285714285,gmail
261,262,Aaron Hand,NE,40.0203,-97.8167,Twitter,2231,60,,,,,,,hotmail
262,263,Ashlee Mertz,TN,35.3402,-85.1264,Facebook,2289,59,,,,,,,gmail
263,264,Arno Bruen,ND,47.4284,-97.1743,Facebook,2145,46,,,,,,,gmail
264,265,Larry Weimann,OR,42.3842,-123.078,Google,3017,65,982.2228,871.4483,715.2116,1404.0867999999998,19.0,0.0,gmail
265,266,Beau Rutherford,OH,38.7161,-83.341,Google,2446,57,467.15,258.115,491.9271,439.8971,9.0,0.3333333333333333,yahoo
266,267,Rogers Bode,AL,31.0491,-87.7168,Affiliate,2693,27,,,,,,,hotmail
267,268,Marvin Hegmann,IL,40.5113,-89.6241,Facebook,3161,44,195.4089,379.09180000000003,225.9085,771.7215,7.0,0.14285714285714285,hotmail
268,269,Mara Prohaska,TX,34.5312,-102.535,Twitter,2642,33,1152.321,890.0417,939.8923,1443.7727,21.0,0.047619047619047616,yahoo
269,270,Chester Eichmann,AL,34.079,-87.1614,Organic,2834,30,0.0,40.821,1628.1482,203.9945,6.0,0.0,hotmail
270,271,Aurore Ryan,UT,37.3458,-112.624,Affiliate,2211,65,977.9971,1255.8903,914.6834,1614.757,26.0,0.15384615384615385,gmail
271,272,Roy Paucek,KS,38.1811,-96.7131,Facebook,2447,54,364.5237,397.88059999999996,585.979,932.9181000000001,12.0,0.25,gmail
272,273,Jesus Bins,KS,39.8391,-95.5969,Organic,2945,62,,,,,,,hotmail
273,274,Cameron Strosin,ND,47.833,-100.318,Facebook,2672,29,813.2599,227.0302,66.4248,77.233,7.0,0.0,gmail
274,275,Gabrielle Considine,WI,44.9365,-88.1927,Affiliate,3100,54,1177.5954,957.2932000000001,29.2887,1346.5841,16.0,0.0625,yahoo
275,276,Abbie Ryan,WA,47.8536,-121.501,Facebook,2960,53,583.7119,991.2391,272.3412,2040.7371,19.0,0.10526315789473684,hotmail
276,277,Ruthe Champlin,MD,39.5737,-76.2641,Affiliate,2739,57,266.4535,0.0,0.0,749.1329000000001,4.0,0.0,gmail
277,278,Fredrick Gulgowski,SC,35.0742,-81.8662,Facebook,3170,35,0.0,353.56190000000004,156.88799999999998,1201.8728,12.0,0.08333333333333333,yahoo
278,279,Orville Effertz,IA,42.3413,-93.0848,Organic,2825,55,0.0,765.1614999999999,187.2424,587.7677,8.0,0.0,hotmail
279,280,Ryleigh Gleason,CO,37.4312,-103.446,Organic,2440,28,0.0,0.0,0.0,107.196,1.0,0.0,gmail
280,281,Marcelina Feest,TN,35.69,-83.9226,Facebook,2212,27,,,,,,,hotmail
281,282,Breanna Hodkiewicz,IA,41.7821,-92.688,Organic,2151,62,506.76599999999996,504.8236,315.1332,287.19399999999996,11.0,0.2727272727272727,hotmail
282,283,Stanford Feest,MI,43.4605,-85.2399,Google,3114,63,,,,,,,gmail
283,284,Shyanne Hettinger,UT,40.131,-110.679,Organic,2188,65,,,,,,,yahoo
284,285,Okey Botsford,ND,47.9994,-102.977,Affiliate,3023,54,465.4268,481.7926,378.0526,1495.3625,17.0,0.11764705882352941,hotmail
285,286,Pamela Jast,WI,42.9076,-89.065,Organic,2634,42,0.0,0.0,404.5203,2795.4695,5.0,0.4,hotmail
286,287,Alverta Reilly,TX,35.4347,-102.261,Google,3061,27,718.1047000000001,1134.8321,260.0192,338.8772,10.0,0.1,yahoo
287,288,Morgan Miller,CA,37.0366,-119.429,Facebook,2132,51,,,,,,,gmail
288,289,Lacey Dickinson,TX,31.5684,-98.7032,Affiliate,2654,24,547.3835,31.3614,326.38340000000005,411.915,9.0,0.0,hotmail
289,290,Lila Marks,IN,40.2804,-87.407,Organic,2153,47,767.1213,0.0,430.19409999999993,0.0,4.0,0.25,gmail
290,291,Jovan Buckridge,NC,35.9268,-82.6489,Affiliate,2692,38,,,,,,,hotmail
291,292,Krystal Schaden,AK,61.5292,-149.458,Affiliate,3186,33,,,,,,,yahoo
292,293,Cornell Connelly,IA,42.8487,-92.8694,Twitter,2582,64,0.0,1215.9523,153.658,442.0007000000001,6.0,0.0,yahoo
293,294,Neil O'Connell,SD,43.8969,-101.761,Twitter,2699,50,,,,,,,gmail
294,295,Aliyah Pfannerstill,CA,35.5254,-119.464,Google,2907,56,918.4375,1730.3713,885.6296,222.672,15.0,0.26666666666666666,hotmail
295,296,Nellie Heller,ME,43.8726,-70.2876,Facebook,3086,59,78.6997,443.05080000000004,350.4058,138.2344,10.0,0.0,yahoo
296,297,Ryley Nader,TX,30.0985,-95.6346,Twitter,2674,62,0.0,0.0,283.4794,603.6795,5.0,0.0,hotmail
297,298,Bernhard Boyer,AK,62.3638,-150.348,Affiliate,2932,60,,,,,,,yahoo
298,299,Delbert Borer,PA,40.7841,-79.7983,Twitter,2573,42,,,,,,,hotmail
299,300,Bryon Lakin,GA,30.7506,-83.232,Facebook,3189,25,361.0622,795.0457999999999,1325.15,659.5136,16.0,0.125,gmail
300,301,Nichole Ledner,IA,42.9376,-93.6411,Organic,2334,26,0.0,556.3815000000001,484.713,0.0,4.0,0.25,yahoo
301,302,Aubree Walter,IA,43.1187,-94.9136,Organic,2489,40,,,,,,,hotmail
302,303,Orlando Kovacek,MS,34.3884,-89.4442,Facebook,2401,50,384.6494,395.1626,327.50759999999997,2066.1989999999996,16.0,0.0,hotmail
303,304,Emmanuelle Sporer,ND,48.805,-97.2063,Twitter,2978,54,153.5553,262.2287,219.76430000000002,2143.9633,11.0,0.18181818181818182,hotmail
304,305,Rebekah Dickinson,NY,41.3713,-74.5085,Facebook,2622,57,382.14430000000004,552.0037,150.0516,911.9115,11.0,0.0,hotmail
305,306,Louie Breitenberg,AL,32.3738,-85.0685,Twitter,2372,44,955.7536,629.1463000000001,81.5978,1285.4866,16.0,0.0,gmail
306,307,Vladimir Kuphal,VA,37.7499,-78.2553,Google,2919,65,661.4628,619.7158,212.679,413.83079999999995,9.0,0.2222222222222222,yahoo
307,308,Kamille Bartell,IA,41.51,-92.4001,Twitter,2944,25,,,,,,,gmail
308,309,Marilou Koss,SD,44.3994,-103.701,Facebook,2511,40,0.0,898.581,324.0152,0.0,4.0,0.0,hotmail
309,310,Libby Ledner,NC,36.443,-81.6218,Twitter,2722,47,866.7089,928.4362000000001,297.8576,1400.509,21.0,0.23809523809523808,yahoo
310,311,Orlo Lueilwitz,PA,40.9406,-77.4245,Facebook,2655,37,882.2198,792.5565,395.20219999999995,232.1949,12.0,0.0,yahoo
311,312,Lauren Lueilwitz,AL,33.7877,-88.228,Affiliate,2976,64,266.4535,275.3819,147.9086,439.1099,9.0,0.3333333333333333,yahoo
312,313,Miguel Reynolds,AK,55.294,-160.679,Organic,2178,64,509.49039999999997,2142.5595,587.346,918.4847,23.0,0.0,gmail
313,314,Tomas Mraz,SD,43.4903,-97.7438,Facebook,2220,40,377.48900000000003,288.4461,81.5768,527.9959,10.0,0.0,gmail
314,315,Autumn Feeney,DE,38.7319,-75.5012,Organic,2289,30,,,,,,,hotmail
315,316,Judd Hickle,NE,42.6917,-100.744,Affiliate,2732,26,,,,,,,gmail
316,317,Sibyl Bernier,OH,41.0493,-81.5361,Affiliate,2233,32,0.0,85.7228,109.6357,0.0,3.0,0.0,gmail
317,318,Cassandre Daugherty,CO,40.7487,-106.611,Affiliate,2713,51,540.056,1238.1995000000002,827.3334,493.3976,18.0,0.1111111111111111,gmail
318,319,Alexa Marvin,IL,38.654,-89.9497,Google,2165,61,,,,,,,gmail
319,320,Adriel Hudson,MN,48.1697,-96.7452,Twitter,2756,52,0.0,0.0,423.18629999999996,0.0,2.0,0.0,yahoo
320,321,Francesca Hammes,NM,33.53,-104.839,Organic,2158,44,,,,,,,yahoo
321,322,Scot Rippin,CO,40.2052,-102.717,Google,3190,39,670.5651,0.0,540.3026,213.78709999999998,9.0,0.0,hotmail
322,323,Deja Schmeler,NJ,39.8454,-75.2503,Affiliate,2158,38,22.5849,519.9093,436.9052,803.0292,8.0,0.0,gmail
323,324,Ardella Willms,CO,37.6252,-103.352,Facebook,3137,30,,,,,,,yahoo
324,325,Orrin Lemke,IL,41.6501,-90.1318,Twitter,2448,41,386.8965,182.40879999999999,264.0312,178.8005,7.0,0.42857142857142855,yahoo
325,326,Clovis Homenick,PA,40.205,-80.3959,Twitter,2254,31,663.7388,764.3734000000001,415.8392,293.6211,13.0,0.23076923076923078,yahoo
326,327,Rosario Bradtke,IL,40.3908,-87.9144,Organic,2283,64,0.0,808.5364000000001,548.1763000000001,258.483,6.0,0.16666666666666666,yahoo
327,328,Merle Blick,CA,34.8651,-120.296,Twitter,2549,24,711.5121,1928.1531,2020.0051,768.0478,25.0,0.12,yahoo
328,329,Elwin Okuneva,TN,36.1709,-83.7152,Affiliate,3112,30,221.9754,1039.0973,934.5172,536.35,16.0,0.0625,gmail
329,330,Edward McClure,TX,32.5654,-100.8,Organic,2815,49,139.762,0.0,326.3072,191.01,3.0,0.0,gmail
330,331,Max Reynolds,WI,46.3313,-90.4063,Affiliate,2197,42,0.0,202.0338,49.7686,71.2216,4.0,0.25,gmail
331,332,Kayley Klein,AK,64.8469,-148.226,Twitter,2477,26,193.98,163.7526,418.62440000000004,0.0,4.0,0.0,hotmail
332,333,Floyd Lehner,CA,37.997,-122.993,Twitter,2345,24,,,,,,,hotmail
333,334,Berneice Abbott,NE,40.2127,-95.8462,Twitter,2380,30,224.8365,608.3793000000001,1223.741,1164.7952,16.0,0.125,hotmail
334,335,Guy Wiegand,ND,46.4302,-101.132,Facebook,2511,35,,,,,,,gmail
335,336,Wilhelmine Erdman,VA,37.3296,-79.7311,Organic,2879,62,518.5681999999999,85.566,50.0172,1814.886,9.0,0.1111111111111111,gmail
336,337,Adolph Tillman,AL,33.0357,-85.5411,Facebook,2739,63,197.6766,453.85670000000005,804.8455000000001,863.7447,16.0,0.0,gmail
337,338,Ernie Bogan,CA,38.4267,-121.652,Google,3046,34,1723.0997,1501.4682,252.5157,2119.6378,26.0,0.07692307692307693,gmail
338,339,Keagan Hirthe,GA,32.4891,-82.7934,Google,3029,45,,,,,,,yahoo
339,340,Serenity Wolff,IN,41.3328,-86.2218,Facebook,2204,49,,,,,,,hotmail
340,341,Andrew Russel,LA,30.0217,-90.1867,Twitter,3116,42,,,,,,,yahoo
341,342,Lavinia Harber,TX,33.7379,-95.5021,Affiliate,3163,51,458.8938,559.2465,666.9984,522.9695,16.0,0.0,yahoo
342,343,Angus Feest,GA,33.4741,-83.0423,Google,2225,32,,,,,,,gmail
343,344,Ellsworth Stamm,NY,42.9047,-75.781,Google,2245,42,0.0,177.6655,54.993,75.2964,4.0,0.25,gmail
344,345,Jayme Zulauf,NY,42.0515,-78.2052,Twitter,2570,31,336.3062,463.8461,773.5438,1582.1381999999999,15.0,0.0,yahoo
345,346,Alene Abernathy,TN,36.4509,-85.1597,Facebook,2614,29,258.8775,227.747,40.7989,0.0,4.0,0.25,gmail
346,347,Ola Gottlieb,IL,41.9093,-89.0507,Affiliate,2217,53,701.6439,81.194,76.3877,367.43899999999996,7.0,0.14285714285714285,gmail
347,348,Elmore Weissnat,OK,34.8956,-94.9735,Organic,2872,38,145.3909,186.4332,901.7878000000001,474.26380000000006,13.0,0.07692307692307693,gmail
348,349,Agustin Collins,MT,47.3663,-108.518,Facebook,3145,43,,,,,,,gmail
349,350,Quentin Dickinson,VT,43.0283,-72.5981,Google,2920,60,27.5529,1337.2908,688.4187,620.8254000000001,13.0,0.0,gmail
350,351,Maudie Leannon,MI,42.7842,-85.2515,Twitter,3181,33,425.4992,473.8402,388.08570000000003,1752.4377,16.0,0.0625,hotmail
351,352,Lowell Koelpin,FL,28.5522,-81.3515,Affiliate,2562,61,137.4698,176.294,106.2322,109.8264,6.0,0.3333333333333333,yahoo
352,353,Hulda Hintz,MI,43.4963,-84.0544,Facebook,2375,54,451.7626,286.8444,325.0864,1113.8985,11.0,0.18181818181818182,hotmail
353,354,Molly Robel,WY,44.7162,-108.186,Facebook,2498,40,45.6546,362.4568,421.6518,868.6829,9.0,0.1111111111111111,hotmail
354,355,Jairo Schiller,MS,32.203,-89.7955,Organic,2928,25,175.745,49.5359,54.993,41.3957,4.0,0.0,yahoo
355,356,Meta Koelpin,WI,43.7774,-89.457,Twitter,2557,29,619.1795000000001,1103.8038000000001,438.2978,868.8333,25.0,0.12,gmail
356,357,Raegan Witting,MT,46.6066,-109.565,Twitter,2327,40,,,,,,,gmail
357,358,Antonina Rolfson,GA,32.8635,-84.8624,Google,3013,41,391.0825,100.1898,27.4965,226.23450000000005,4.0,0.5,hotmail
358,359,Mattie Russel,TX,30.128,-98.4837,Affiliate,2580,50,0.0,882.5533,0.0,566.1337,6.0,0.16666666666666666,yahoo
359,360,Stuart Wintheiser,MO,37.5582,-89.5358,Google,2357,29,244.6255,596.801,76.6089,0.0,4.0,0.0,hotmail
360,361,Unique Balistreri,NC,35.997,-81.682,Twitter,3175,53,0.0,325.3127,280.5846,1865.961,12.0,0.0,gmail
361,362,Jaqueline Waelchi,OH,40.738,-83.2869,Affiliate,2248,32,574.3991,647.3403000000001,274.871,653.8953,11.0,0.18181818181818182,hotmail
362,363,Diana Marvin,CA,36.185,-121.197,Google,2984,41,95.3824,66.7932,0.0,0.0,2.0,0.0,hotmail
363,364,Geovanny Turcotte,WI,45.3942,-90.9355,Google,2751,47,,,,,,,hotmail
364,365,Sibyl Hettinger,NE,41.0168,-97.8283,Affiliate,2347,46,686.7601,195.2104,0.0,84.0315,4.0,0.0,hotmail
365,366,Justina Blanda,TN,36.2944,-84.0974,Facebook,2379,46,,,,,,,yahoo
366,367,Gaetano Wilderman,MT,47.551,-106.081,Affiliate,2258,58,61.9786,269.3784,856.6818000000001,357.83000000000004,7.0,0.0,yahoo
367,368,Trudie Wisoky,MD,39.269,-77.1947,Google,2317,29,,,,,,,gmail
368,369,Alia O'Reilly,AR,33.6958,-93.002,Facebook,2223,34,454.95860000000005,155.864,663.5714,266.19259999999997,9.0,0.0,hotmail
369,370,Lisette Roberts,MS,32.8553,-88.961,Affiliate,2938,54,,,,,,,hotmail
370,371,Kimberly Braun,VA,36.7203,-78.5599,Twitter,2889,64,603.2954,743.9748999999999,54.993,0.0,5.0,0.4,yahoo
371,372,Meagan Cremin,NC,34.7803,-77.6266,Facebook,2401,47,,,,,,,yahoo
372,373,Dawson Kuvalis,NM,36.3935,-106.49,Google,2547,34,385.6373,428.614,0.0,75.2964,4.0,0.0,gmail
373,374,Ryleigh Padberg,NY,42.8718,-76.6304,Affiliate,2918,46,,,,,,,hotmail
374,375,Ryder Kunde,MT,46.7989,-112.18,Google,2413,27,991.532,937.9104,436.4565,1074.7993000000001,14.0,0.07142857142857142,yahoo
375,376,Fanny Gutmann,IN,40.8424,-85.7273,Twitter,2641,55,1190.6118,1724.7441,477.3219,1901.163,27.0,0.14814814814814814,yahoo
376,377,Prince Quitzon,MT,47.469,-111.448,Organic,2480,43,274.8813,573.0327,1256.5625,551.3204000000001,13.0,0.0,yahoo
377,378,Corbin Mertz,LA,30.326,-92.2038,Affiliate,2676,53,,,,,,,hotmail
378,379,Theresia Johnston,PA,40.1861,-79.6712,Google,2187,40,1771.4132,255.0495,620.867,274.4904,10.0,0.1,yahoo
379,380,Faustino Okuneva,ME,44.3998,-68.8101,Affiliate,3214,42,,,,,,,yahoo
380,381,Trudie Koch,IN,38.6913,-86.4017,Twitter,2841,37,0.0,0.0,0.0,74.0356,1.0,0.0,yahoo
381,382,Thaddeus Lindgren,FL,29.4371,-82.814,Twitter,2779,56,,,,,,,yahoo
382,383,Phoebe Wintheiser,ND,48.6167,-99.1286,Affiliate,2716,50,345.66200000000003,0.0,656.6376,0.0,3.0,0.0,yahoo
383,384,Tressie Smitham,MS,34.1911,-89.1203,Google,3099,66,0.0,257.1084,81.5978,0.0,2.0,0.5,yahoo
384,385,Veda Raynor,AK,54.8489,-163.407,Facebook,2995,29,,,,,,,yahoo
385,386,Omer Kautzer,AK,61.2668,-145.283,Affiliate,3211,59,0.0,459.8156,495.10530000000006,89.5144,6.0,0.16666666666666666,gmail
386,387,Selina O'Hara,CA,39.166,-123.381,Facebook,2488,37,,,,,,,gmail
387,388,Nicklaus Hahn,IA,42.2819,-93.7431,Facebook,3040,34,170.6848,214.2897,558.3906,277.674,7.0,0.42857142857142855,hotmail
388,389,Mellie Wolf,NE,40.1801,-98.2325,Affiliate,2925,63,263.4548,142.6766,150.1413,160.79399999999998,8.0,0.25,yahoo
389,390,Brenna Hudson,ID,44.1041,-111.492,Organic,2494,52,0.0,237.45749999999998,132.8832,753.7638,6.0,0.0,hotmail
390,391,Gilberto Mueller,CO,38.521,-106.677,Twitter,2743,40,1470.4184,1122.1314,545.842,1576.7199,20.0,0.25,gmail
391,392,Percival Schuppe,GA,34.2581,-84.4209,Affiliate,2229,39,,,,,,,hotmail
392,393,Sigurd Abernathy,MI,44.8954,-85.0113,Twitter,3093,62,,,,,,,yahoo
393,394,Rosario Thiel,AR,34.8236,-91.8406,Twitter,3155,35,0.0,420.4617,326.4063,642.1942,11.0,0.18181818181818182,gmail
394,395,Chet Blick,FL,28.6706,-82.619,Google,2397,44,,,,,,,yahoo
395,396,Alfred Parisian,SD,43.6585,-98.1352,Organic,3187,28,,,,,,,gmail
396,397,Lavern Botsford,PA,41.7117,-79.9305,Twitter,3186,64,617.0036,176.1848,0.0,0.0,3.0,0.3333333333333333,hotmail
397,398,Norval Collins,MN,46.5653,-96.1857,Organic,2652,25,0.0,0.0,0.0,434.2812,2.0,0.0,gmail
398,399,Leilani Sanford,AK,62.1402,-149.912,Organic,2136,47,537.9639,666.3000000000001,722.3794,547.3295,18.0,0.2777777777777778,yahoo
399,400,Benton Huel,IA,41.4294,-91.1866,Affiliate,2742,28,102.3702,281.13079999999997,100.8674,164.766,5.0,0.2,gmail
400,401,Mark Hane,NC,35.4119,-79.5268,Twitter,2669,41,0.0,393.1442,276.8106,497.8456,10.0,0.0,gmail
401,402,Carmella Cummerata,AR,35.7832,-91.6198,Organic,2361,30,,,,,,,hotmail
402,403,Andy Schmeler,MA,42.106,-71.7159,Facebook,2126,37,556.2621,447.74,291.8689,3842.3361,19.0,0.05263157894736842,gmail
403,404,Lolita Ferry,MD,38.6433,-76.5584,Affiliate,2677,29,260.1384,331.5564,0.0,136.31810000000002,7.0,0.14285714285714285,hotmail
404,405,Gwen Ruecker,NY,42.6078,-76.3542,Twitter,2614,31,,,,,,,gmail
405,406,Kacie Skiles,SD,43.4861,-96.9791,Affiliate,2167,31,723.8622,203.71089999999998,366.2483,37.0178,10.0,0.1,yahoo
406,407,Liliane Blanda,TX,29.8558,-94.0979,Organic,2829,32,896.4691,430.9629,947.6485,321.8301,15.0,0.26666666666666666,gmail
407,408,Drake Beahan,AK,66.9246,-151.506,Organic,2584,46,,,,,,,hotmail
408,409,Kenyon Watsica,LA,29.9929,-93.1544,Organic,2481,32,2579.0311,341.2656,1620.0758,0.0,11.0,0.09090909090909091,gmail
409,410,Donald Dietrich,SC,33.6012,-81.1554,Affiliate,2323,38,,,,,,,gmail
410,411,Ruthe Gibson,NC,34.9607,-78.7813,Affiliate,2478,47,2173.7834000000003,163.2074,450.5172,1055.161,15.0,0.06666666666666667,hotmail
411,412,Earnestine Lockman,CA,40.7585,-124.049,Facebook,2532,60,538.0297,337.34839999999997,2135.1873,766.9276,21.0,0.19047619047619047,hotmail
412,413,Joanne Osinski,CO,37.2884,-108.003,Facebook,2939,48,355.9834,500.528,567.4246,546.0775000000001,17.0,0.17647058823529413,gmail
413,414,Casey Metz,GA,34.2125,-84.6061,Google,2682,64,310.8738,236.43120000000002,0.0,95.191,8.0,0.0,yahoo
414,415,Orlo Champlin,WY,43.4571,-105.455,Google,2258,48,,,,,,,gmail
415,416,Zoe Bernhard,MI,46.1527,-84.1175,Affiliate,2284,43,,,,,,,yahoo
416,417,Rowan Hyatt,IL,38.2323,-89.667,Google,2605,29,70.4356,498.41510000000005,524.7592,221.5233,8.0,0.125,hotmail
417,418,Ella Koss,TX,29.7621,-98.5691,Google,2467,31,2522.2995,0.0,385.943,144.595,6.0,0.0,hotmail
418,419,Jaeden Cremin,KY,36.7178,-86.4416,Google,2305,35,134.3488,86.8764,0.0,125.494,3.0,0.0,yahoo
419,420,Crystel Mann,ND,47.7602,-98.5808,Organic,2417,49,754.9778,200.0724,978.2928,1371.1179,17.0,0.0,yahoo
420,421,Arely Zulauf,OK,36.3361,-97.6353,Facebook,2784,61,70.298,0.0,489.4898,0.0,4.0,0.0,yahoo
421,422,Reagan DuBuque,GA,31.5883,-83.485,Organic,2421,55,,,,,,,hotmail
422,423,Loyce Cole,IA,41.1435,-95.1535,Google,2327,32,91.80539999999999,0.0,489.01300000000003,1023.6372,7.0,0.0,hotmail
423,424,Earline Gulgowski,MO,36.9492,-90.1345,Google,3094,53,0.0,276.0125,349.3764,276.4132,5.0,0.0,yahoo
424,425,Enrique Wiegand,MS,33.9995,-90.8827,Twitter,2406,46,505.11220000000003,154.4481,54.5842,405.4908,9.0,0.1111111111111111,hotmail
425,426,Rollin Ondricka,NV,36.4569,-114.847,Facebook,2938,31,,,,,,,gmail
426,427,Chester Koepp,FL,27.3317,-82.0847,Twitter,2666,33,,,,,,,yahoo
427,428,Kennedy Kunde,KS,38.03,-100.392,Facebook,2325,47,,,,,,,gmail
428,429,Andy Skiles,WI,42.5574,-89.5572,Facebook,2584,27,,,,,,,yahoo
429,430,Justine Kertzmann,MS,30.6692,-89.0776,Facebook,3090,48,,,,,,,yahoo
430,431,Tobin Huels,UT,37.8729,-109.161,Affiliate,2796,51,,,,,,,gmail
431,432,Lou Runte,UT,39.929,-109.381,Twitter,3012,28,544.0355999999999,372.5018,0.0,0.0,5.0,0.2,gmail
432,433,Kim Grant,CO,37.5086,-105.006,Organic,2920,50,,,,,,,yahoo
433,434,Domenico Abernathy,SC,34.5489,-82.6196,Google,2275,32,74.871,0.0,0.0,0.0,1.0,0.0,gmail
434,435,Allan Runolfsson,MO,36.7191,-91.6816,Facebook,2619,25,39.6878,560.5979,135.6696,296.8478,8.0,0.125,gmail
435,436,Heber Turner,IA,41.9938,-94.4972,Facebook,3132,35,1322.2993999999999,389.0698,493.77250000000004,0.0,8.0,0.0,gmail
436,437,Danial Keeling,MT,46.1215,-111.598,Google,2399,42,108.8296,281.669,587.9489000000001,0.0,7.0,0.14285714285714285,yahoo
437,438,Arvid Hermiston,CA,37.7203,-121.794,Organic,2749,38,,,,,,,hotmail
438,439,Ivah Tromp,ND,47.011,-100.356,Facebook,2222,39,0.0,514.2966,0.0,219.69209999999998,6.0,0.0,gmail
439,440,Sarina Bailey,MN,45.6198,-93.2683,Google,2986,38,70.7774,751.4788,291.32640000000004,0.0,7.0,0.2857142857142857,gmail
440,441,Pietro Bogisich,MN,46.1212,-93.5873,Affiliate,2412,49,538.5943,572.5844,1687.5421,890.4663,22.0,0.045454545454545456,hotmail
441,442,Arch Simonis,WV,39.2379,-80.0204,Facebook,2198,27,628.3938999999999,439.54720000000003,295.8172,429.2436,8.0,0.125,hotmail
442,443,Lisa VonRueden,ND,46.598,-98.2902,Twitter,3089,43,314.64140000000003,517.4127,1150.2917,163.7505,10.0,0.0,yahoo
443,444,Andres Zulauf,KS,37.0512,-94.8315,Organic,2825,46,486.36879999999996,1113.3889,257.6499,262.71479999999997,13.0,0.0,yahoo
444,445,Claudine McCullough,AL,32.3356,-86.3083,Affiliate,2969,32,,,,,,,yahoo
445,446,Tre Balistreri,OH,39.7339,-84.0507,Organic,3177,58,135.7732,640.6649,379.4823,1269.5068,10.0,0.0,hotmail
446,447,Demario Hand,GA,30.9974,-81.9071,Affiliate,3043,51,508.8084,71.4299,741.5893,468.72439999999995,7.0,0.14285714285714285,yahoo
447,448,Darian Cremin,WV,38.9633,-78.9354,Organic,2439,57,218.4617,1019.8057,1127.3314,1308.0194,21.0,0.047619047619047616,hotmail
448,449,Zetta Nitzsche,TX,26.1594,-98.0375,Organic,2984,44,1151.8299,635.6048000000001,1535.3477,0.0,12.0,0.16666666666666666,gmail
449,450,Sincere Waters,OK,33.9896,-96.7605,Affiliate,2976,32,,,,,,,yahoo
450,451,Vernice Schmitt,NY,44.1882,-74.4322,Twitter,3208,30,48.495,476.8954,547.1151,998.9915,10.0,0.1,hotmail
451,452,Dawn Goldner,CO,40.8811,-102.412,Affiliate,2490,45,769.41,275.1603,231.0733,647.9606000000001,12.0,0.16666666666666666,yahoo
452,453,Evangeline Reichert,MT,47.0569,-109.169,Facebook,2552,43,765.556,398.43359999999996,1095.242,703.1362,18.0,0.1111111111111111,yahoo
453,454,Bobby Kessler,AL,32.8089,-85.4291,Facebook,3015,46,291.02369999999996,1124.4497999999999,186.5256,487.7565,14.0,0.14285714285714285,yahoo
454,455,Leonie Crona,MT,48.2668,-112.12,Twitter,2870,65,228.273,407.884,0.0,154.7966,3.0,0.0,gmail
455,456,Rogelio Turner,MO,40.4162,-95.0136,Affiliate,2460,27,394.56899999999996,0.0,135.5451,0.0,3.0,0.3333333333333333,yahoo
456,457,Marguerite Huels,ID,44.1239,-116.302,Facebook,3098,58,0.0,306.00710000000004,157.9537,663.6175,5.0,0.0,hotmail
457,458,Elvera Lowe,AL,33.6648,-87.0007,Twitter,2159,33,531.4449,641.8226999999999,0.0,33.2124,7.0,0.2857142857142857,yahoo
458,459,Anissa Schuppe,PA,41.8986,-79.7401,Facebook,2818,32,861.5162,613.4122000000001,1060.7367,826.1528,17.0,0.058823529411764705,yahoo
459,460,Laisha West,GA,34.6712,-83.4926,Twitter,2987,30,,,,,,,yahoo
460,461,Sid Mills,CO,39.6994,-105.413,Organic,2621,30,470.9348,787.885,158.931,1483.6227999999999,18.0,0.16666666666666666,gmail
461,462,Ellie Oberbrunner,TN,36.4451,-85.3115,Affiliate,2464,25,,,,,,,yahoo
462,463,Marianna Smith,MI,42.6925,-82.7824,Affiliate,3067,33,,,,,,,gmail
463,464,Madaline Hilll,KS,38.1628,-99.1111,Twitter,2911,64,,,,,,,yahoo
464,465,Haskell Graham,OR,44.7408,-121.128,Twitter,2126,60,222.1575,655.932,88.3899,547.5386000000001,6.0,0.16666666666666666,gmail
465,466,Myles Deckow,FL,27.0134,-80.4234,Twitter,2579,61,113.3128,401.9624,36.6007,407.5561,8.0,0.125,gmail
466,467,Chanel Dare,NE,40.5804,-95.8412,Affiliate,2650,58,,,,,,,hotmail
467,468,Jensen Swaniawski,MO,36.5003,-90.3246,Facebook,2560,56,1163.8663000000001,213.577,832.29,153.9066,10.0,0.0,hotmail
468,469,Letha Murazik,IL,39.0543,-88.2794,Organic,2373,51,0.0,0.0,350.3738,0.0,1.0,0.0,gmail
469,470,Enrico Graham,DE,38.8214,-75.5476,Twitter,2323,29,444.6176,405.1225,408.546,370.2456,13.0,0.15384615384615385,gmail
470,471,Oral Balistreri,CA,38.8149,-121.136,Facebook,3004,39,,,,,,,yahoo
471,472,Gregory Brakus,NC,35.8386,-77.164,Twitter,2477,57,213.346,1022.1864,1051.2305999999999,1949.2218,15.0,0.13333333333333333,hotmail
472,473,Tyler Cremin,TX,31.3769,-96.982,Affiliate,2190,41,,,,,,,gmail
473,474,Reyes Kulas,IN,41.174,-87.2217,Facebook,2441,62,,,,,,,yahoo
474,475,Murray Gleason,TX,32.4463,-95.3827,Twitter,2204,55,,,,,,,gmail
475,476,Adalberto Terry,GA,34.032,-83.1427,Affiliate,3149,58,149.742,243.582,1187.2777,490.3577,10.0,0.2,yahoo
476,477,Winfield Donnelly,NC,35.8516,-78.703,Google,2243,45,,,,,,,hotmail
477,478,Vergie Borer,VA,38.3572,-78.4128,Twitter,2893,58,,,,,,,hotmail
478,479,Molly Klocko,AK,61.2668,-145.283,Organic,2844,56,,,,,,,gmail
479,480,Crawford Rath,IN,40.2483,-87.2575,Organic,2716,55,123.0858,425.0825,0.0,0.0,2.0,0.5,gmail
480,481,Keely O'Conner,AR,36.3139,-92.3731,Google,2174,51,0.0,105.5388,73.9543,0.0,2.0,0.0,gmail
481,482,Dolores Bins,AR,34.0787,-92.6511,Twitter,2429,30,389.1132,2174.637,830.5553,664.3199999999999,17.0,0.058823529411764705,yahoo
482,483,Magnolia O'Keefe,GA,34.949,-83.8017,Twitter,2688,28,428.1062,615.3838000000001,493.6323,93.5282,11.0,0.09090909090909091,hotmail
483,484,Mayra Olson,IN,41.3284,-84.8139,Google,2244,54,891.217,448.7088,1088.1295,996.2228,16.0,0.0625,yahoo
484,485,Marcelina Moore,VA,38.7268,-78.6578,Twitter,2395,60,356.1106,290.6117,2269.45,819.4396999999999,12.0,0.08333333333333333,yahoo
485,486,Morris Beahan,MO,36.8178,-93.8447,Facebook,2495,41,,,,,,,yahoo
486,487,Mike Abernathy,NC,34.8868,-76.7908,Affiliate,2420,35,,,,,,,hotmail
487,488,Terrence Emmerich,OH,40.6506,-81.4353,Affiliate,2659,47,814.9839,616.9612,1737.1898999999999,1164.1466,22.0,0.22727272727272727,yahoo
488,489,Amya Homenick,MI,44.051,-86.0815,Organic,2600,31,285.4427,1452.4705,42.849,0.0,8.0,0.125,yahoo
489,490,Tyreek Runolfsdottir,CT,41.718,-72.3043,Affiliate,3176,44,991.8283,520.5792,320.96200000000005,763.4214999999999,15.0,0.06666666666666667,gmail
490,491,Justina Kassulke,ID,48.468,-116.42,Organic,2474,27,,,,,,,hotmail
491,492,Janelle Rutherford,TX,32.5672,-95.7324,Google,2686,49,659.36,676.7352000000001,252.1179,352.5425,12.0,0.0,hotmail
492,493,May Kerluke,NY,43.2237,-77.5279,Facebook,2702,61,2562.0906999999997,920.8521000000001,1246.1546,1329.4218,20.0,0.1,hotmail
493,494,Abdullah Fisher,GA,32.824,-82.9221,Google,2776,52,,,,,,,hotmail
494,495,Kamron Senger,MS,33.2958,-88.4409,Google,3172,37,,,,,,,hotmail
495,496,Corine Rosenbaum,NC,34.9713,-78.9892,Affiliate,3105,35,,,,,,,yahoo
496,497,Jennings Ferry,NC,35.463,-77.1134,Google,2539,27,344.1667,664.2512,571.8271000000001,681.746,13.0,0.23076923076923078,gmail
497,498,Nickolas Schuster,MO,36.508,-91.3048,Affiliate,2328,46,,,,,,,yahoo
498,499,Loyal Wintheiser,MT,45.9088,-113.265,Organic,2828,39,690.7257999999999,681.1932,639.7941,400.5554,10.0,0.1,yahoo
499,500,Madge Friesen,KS,37.8205,-95.6682,Organic,2478,33,126.5052,2072.0534,1109.5218,106.5697,22.0,0.0,gmail
500,501,Orval Hettinger,MO,38.7003,-91.2954,Google,2777,38,388.06,0.0,158.8999,238.3721,12.0,0.08333333333333333,hotmail
501,502,Maddison Morar,OH,41.1058,-81.5641,Organic,2484,37,,,,,,,hotmail
502,503,Devan Skiles,KS,38.6242,-95.4528,Organic,2348,39,240.7025,311.9819,659.3485000000001,1191.8056,16.0,0.0,gmail
503,504,Carlotta Kessler,IA,41.3111,-94.4146,Affiliate,2233,46,408.7123,735.0394000000001,73.9543,1968.3048000000001,15.0,0.06666666666666667,yahoo
504,505,Isac Cole,NY,42.2346,-76.8371,Organic,2335,43,,,,,,,gmail
505,506,Lenore Cummerata,MI,45.7456,-87.181,Organic,2293,45,,,,,,,hotmail
506,507,Ava Jaskolski,WA,47.5002,-118.141,Facebook,3134,37,484.81359999999995,225.3052,207.566,491.6974,8.0,0.0,hotmail
507,508,Breana Weber,IL,40.5178,-90.4267,Facebook,3032,43,1104.0269,146.3744,928.5242000000001,841.3726999999999,16.0,0.0,hotmail
508,509,Ignatius Watsica,TN,36.0346,-86.8441,Facebook,2539,57,0.0,133.5978,75.0862,278.34,3.0,0.0,gmail
509,510,Arnoldo Cronin,IA,41.9659,-92.8931,Facebook,2753,24,0.0,0.0,286.1493,305.4102,3.0,0.0,gmail
510,511,Lemuel Schamberger,IA,42.9234,-95.4129,Facebook,2332,55,457.5888,1065.3617,721.8147,599.6631,18.0,0.2222222222222222,yahoo
511,512,Oliver Jacobs,AR,34.7953,-92.77,Google,2205,29,389.745,1362.3683,902.1049,1289.5817,20.0,0.1,yahoo
512,513,Loma Monahan,TN,35.6537,-85.979,Organic,2612,58,198.439,910.5001,285.6544,550.4816000000001,15.0,0.13333333333333333,yahoo
513,514,Glen Johnston,MT,45.9292,-108.355,Google,2327,36,,,,,,,yahoo
514,515,Hassan Hansen,TX,36.1896,-102.328,Facebook,2869,53,,,,,,,gmail
515,516,Aurelie Moore,CA,38.4167,-122.754,Twitter,2836,29,,,,,,,yahoo
516,517,Blanche Rau,WI,44.2226,-89.0943,Facebook,2426,39,,,,,,,yahoo
517,518,Granville Gaylord,MI,42.0922,-85.26,Affiliate,2868,46,685.0622,0.0,176.762,569.1495,9.0,0.1111111111111111,yahoo
518,519,Marcelle Rippin,TX,33.5235,-94.7969,Affiliate,2925,31,641.2541,555.6602999999999,786.4481000000001,1169.5581,14.0,0.07142857142857142,gmail
519,520,Lamont Hoeger,NY,42.0261,-74.8045,Facebook,2380,65,373.289,493.1883,676.6936000000001,674.5471,16.0,0.0625,gmail
520,521,Ubaldo Becker,MT,47.7415,-112.317,Organic,2947,46,136.1975,156.40980000000002,672.6958,1111.1091999999999,9.0,0.3333333333333333,gmail
521,522,Theodore McGlynn,MT,48.2485,-104.606,Facebook,3039,49,177.1032,1647.4001,1187.756,92.2056,13.0,0.0,hotmail
522,523,Deonte Hoeger,MT,45.4597,-110.198,Twitter,3191,49,0.0,81.194,152.5664,0.0,2.0,0.0,hotmail
523,524,Naomi Jacobs,VA,37.4279,-77.7575,Google,2382,60,,,,,,,yahoo
524,525,Ethan Rutherford,WI,46.667,-92.0632,Affiliate,3202,28,118.1268,89.5144,175.3656,0.0,5.0,0.0,gmail
525,526,Tyrique Deckow,KS,37.6066,-98.7394,Organic,2397,33,26.9635,1438.6144,778.3864,2187.2904,18.0,0.05555555555555555,yahoo
526,527,Marjorie O'Conner,IA,41.9584,-95.5466,Affiliate,2194,45,1029.5403999999999,414.0356,856.2665999999999,367.0427,11.0,0.0,yahoo
527,528,Jennyfer Hermiston,AR,36.3496,-92.2922,Twitter,2641,64,0.0,0.0,445.0675,0.0,1.0,0.0,gmail
528,529,Haylie Johns,CO,40.8956,-102.409,Twitter,2173,25,70.7774,67.13579999999999,0.0,75.4115,3.0,0.0,hotmail
529,530,Camila Kautzer,WI,43.9301,-88.9493,Facebook,2963,36,0.0,445.927,0.0,0.0,3.0,0.0,yahoo
530,531,Dixie Adams,AL,32.4174,-87.5387,Google,2969,51,1966.0404999999998,7237.1983,1003.2583,2254.3231,32.0,0.0625,yahoo
531,532,Barrett Brekke,TX,34.0997,-98.6866,Twitter,2127,54,,,,,,,gmail
532,533,Jennie Kuhlman,MT,46.4754,-110.078,Twitter,2817,61,0.0,643.626,0.0,0.0,2.0,0.5,hotmail
533,534,Lacey Balistreri,CO,39.0383,-104.174,Affiliate,2375,41,0.0,111.893,416.2767,143.2575,3.0,0.0,gmail
534,535,Will Kozey,CA,37.8618,-120.626,Affiliate,2734,24,262.5833,756.5918,453.7188,81.5978,8.0,0.25,yahoo
535,536,Daisha Boyer,MI,44.5041,-85.5458,Affiliate,2849,59,1550.4508,587.2615000000001,980.4932,2062.37,26.0,0.07692307692307693,gmail
536,537,Keith Rosenbaum,AR,35.7394,-93.6382,Google,3138,29,225.5642,31.7275,173.5473,627.5738,7.0,0.14285714285714285,hotmail
537,538,Charlie Bartoletti,WI,45.5285,-88.3064,Google,2704,54,501.5364,414.42510000000004,167.48250000000002,1171.8043,18.0,0.16666666666666666,yahoo
538,539,Daren Huels,WY,44.4657,-106.68,Facebook,2382,39,,,,,,,gmail
539,540,Mallory Kirlin,CA,34.2037,-116.591,Google,2332,34,2438.2626,621.6281,0.0,982.6915,11.0,0.09090909090909091,hotmail
540,541,Alycia Collins,GA,31.7197,-84.1848,Facebook,2852,64,,,,,,,yahoo
541,542,Gertrude Labadie,NC,36.3605,-77.2234,Organic,2262,58,0.0,1128.8942000000002,612.8266,828.5559999999999,6.0,0.0,yahoo
542,543,Hadley Watsica,NY,42.1887,-74.1356,Google,2409,63,128.0136,795.836,438.3998,449.736,12.0,0.0,hotmail
543,544,Emmie Mertz,TX,30.0086,-98.8264,Affiliate,2770,40,626.7404,869.1704000000001,632.3472,956.4965,15.0,0.0,yahoo
544,545,Aylin Wisozk,GA,34.3911,-85.304,Google,2554,47,1388.0956999999999,1793.9493,429.7745,275.8241,16.0,0.0,yahoo
545,546,Richmond Bode,SC,34.5994,-82.1511,Affiliate,2321,45,,,,,,,gmail
546,547,Sim Gusikowski,TX,33.5783,-97.7866,Affiliate,2879,28,0.0,0.0,297.3405,0.0,1.0,0.0,gmail
547,548,Liliane Hayes,IN,41.2856,-85.9986,Facebook,2456,38,,,,,,,gmail
548,549,Andy Rempel,WI,46.3689,-91.9849,Affiliate,2863,44,346.2912,531.4336000000001,729.4889000000001,136.45530000000002,12.0,0.0,hotmail
549,550,Kristoffer Keebler,AK,65.0807,-148.034,Google,2307,54,371.0611,474.7347,932.4418,158.7332,12.0,0.08333333333333333,gmail
550,551,Oceane Runte,SD,44.7639,-99.293,Organic,3118,47,0.0,409.7014,1304.5303,356.3119,10.0,0.1,yahoo
551,552,Isidro Schuppe,MO,36.9156,-92.9577,Affiliate,2177,52,512.2043,1134.8626000000002,805.9937,316.2572,15.0,0.0,yahoo
552,553,Briana Koss,CO,40.3416,-102.314,Affiliate,2136,51,,,,,,,hotmail
553,554,Robin Rohan,WI,43.0951,-88.9769,Facebook,2528,24,130.375,604.6831,375.4081,272.3226,15.0,0.13333333333333333,hotmail
554,555,Coty Kertzmann,ID,46.2974,-115.962,Organic,2944,32,120.3987,0.0,692.1652,537.9204,8.0,0.0,hotmail
555,556,Percy Padberg,IL,40.1748,-87.6572,Organic,2915,50,452.5329,252.4448,1065.4518000000003,854.1929,11.0,0.18181818181818182,gmail
556,557,Enola Bayer,IL,41.2536,-88.5248,Google,2270,30,432.03740000000005,904.6391,871.3549,125.494,14.0,0.0,yahoo
557,558,Alexandria Schowalter,AL,32.7908,-85.1438,Google,3153,55,766.6417,1297.4954,365.242,694.1179,15.0,0.13333333333333333,yahoo
558,559,Aylin Haley,IN,39.4164,-87.3482,Facebook,2943,33,,,,,,,hotmail
559,560,Earl Erdman,MD,38.7276,-75.9416,Affiliate,2731,61,557.0845,590.3221,1118.7221,660.7281,15.0,0.06666666666666667,gmail
560,561,Brooks Shields,OR,42.0223,-118.623,Organic,2519,24,524.097,1048.7178,1423.591,1335.8092000000001,21.0,0.0,gmail
561,562,Samson Hauck,MN,46.7163,-94.5646,Facebook,2497,46,0.0,276.79560000000004,0.0,596.7822,3.0,0.0,gmail
562,563,Tristin Lebsack,NE,40.2912,-98.5722,Organic,3096,27,,,,,,,yahoo
563,564,Lura Gutmann,WI,45.0784,-90.1627,Facebook,3041,37,321.6869,527.2881,875.9316,863.6283999999999,15.0,0.2,hotmail
564,565,Letha Streich,TN,36.0159,-89.4317,Facebook,2871,44,0.0,0.0,187.0564,266.0208,3.0,0.0,yahoo
565,566,Jessy Spinka,ND,47.3139,-100.706,Twitter,2978,43,35.149,4167.8497,1618.0931,982.3943999999999,16.0,0.0,gmail
566,567,Rossie Mann,WI,43.113,-90.603,Twitter,2503,36,877.5854,1573.1301,1597.8165999999999,360.8754,20.0,0.1,gmail
567,568,Jay Strosin,MT,47.7939,-111.603,Facebook,3132,29,691.4778,1148.7642,29.2887,562.2035999999999,11.0,0.09090909090909091,gmail
568,569,Griffin Kling,NC,35.5423,-83.0691,Organic,2456,37,,,,,,,hotmail
569,570,Zoila Armstrong,DE,39.7719,-75.49,Affiliate,3194,64,,,,,,,yahoo
570,571,Micaela Ebert,ND,47.1503,-100.238,Affiliate,2610,54,434.4741,0.0,0.0,559.7285999999999,7.0,0.0,gmail
571,572,Sheldon Braun,GA,32.1289,-81.932,Affiliate,3005,37,,,,,,,gmail
572,573,Rachelle Schmidt,IN,41.0532,-86.6947,Twitter,2626,60,177.726,0.0,829.4502,896.3575000000001,7.0,0.14285714285714285,gmail
573,574,Jakob Hansen,ND,47.1096,-96.9333,Facebook,3169,61,1132.5445,0.0,1102.5786,368.22069999999997,9.0,0.2222222222222222,gmail
574,575,Demetris Carroll,NY,43.0566,-77.6116,Google,2366,46,,,,,,,hotmail
575,576,Hulda Greenfelder,MT,46.5603,-104.094,Google,2845,27,45.6546,738.0822000000001,583.2768,376.4847,8.0,0.125,gmail
576,577,Orion Wilkinson,IN,41.4766,-85.3776,Facebook,2564,40,1313.0492,907.7955999999999,747.0984,847.5565,21.0,0.09523809523809523,gmail
577,578,Estrella Goyette,LA,31.1026,-92.1802,Organic,3018,43,134.0328,1330.1832,356.2144,700.2354,18.0,0.05555555555555555,hotmail
578,579,Austyn Klein,NH,43.2555,-71.0672,Facebook,2995,29,,,,,,,yahoo
579,580,Kitty Hilll,TX,29.7981,-99.1927,Affiliate,2959,30,,,,,,,gmail
580,581,Quinten Goyette,MN,43.701,-95.6141,Google,2814,44,176.9435,566.3507999999999,732.5624,521.1966,11.0,0.2727272727272727,gmail
581,582,Eriberto Cruickshank,OK,35.3965,-98.833,Organic,2590,31,,,,,,,hotmail
582,583,Issac O'Kon,IA,43.2322,-96.1972,Twitter,3171,51,312.5544,718.9655,1486.4272,696.9031,18.0,0.0,hotmail
583,584,Nia Franecki,IA,41.951,-90.4608,Google,3126,52,,,,,,,yahoo
584,585,Stefan Reilly,ID,43.1132,-115.79,Google,2734,66,0.0,0.0,450.5172,798.0102,4.0,0.25,yahoo
585,586,Rosalyn Bauch,MN,43.602,-95.412,Facebook,2883,36,0.0,0.0,30.536,589.9417,3.0,0.0,yahoo
586,587,Deven Bruen,OH,40.3189,-84.3659,Organic,2397,42,0.0,555.6254,441.4157,0.0,4.0,0.0,hotmail
587,588,Porter Tromp,MS,33.2467,-89.228,Affiliate,2257,49,1303.7501,89.0652,812.722,782.5825,12.0,0.25,yahoo
588,589,Lazaro Luettgen,ME,43.7452,-70.4604,Twitter,2208,26,0.0,160.2156,0.0,384.7665,2.0,0.0,yahoo
589,590,Cleo Ziemann,IL,41.21,-90.937,Affiliate,2916,40,979.5497,433.0795,329.9235,927.75,10.0,0.2,yahoo
590,591,Dahlia Turner,MN,46.3126,-95.6099,Twitter,2299,27,838.2662,662.3662,417.355,271.5124,14.0,0.07142857142857142,yahoo
591,592,Manley Bogan,MN,44.7068,-95.0367,Twitter,2611,25,0.0,0.0,368.388,0.0,2.0,0.5,gmail
592,593,Christa Streich,MA,42.5533,-71.6918,Twitter,2849,30,,,,,,,gmail
593,594,Marlon Howell,GA,32.5326,-81.2773,Facebook,2578,62,,,,,,,yahoo
594,595,Darlene Rohan,CO,40.2045,-104.994,Twitter,3064,39,,,,,,,yahoo
595,596,Dale Macejkovic,IA,42.714,-96.4093,Google,2412,33,,,,,,,hotmail
596,597,Stan Schaefer,AK,61.739,-148.912,Facebook,3139,53,631.5296,371.28560000000004,280.5846,891.6306,12.0,0.25,yahoo
597,598,Lon Friesen,PA,39.9081,-78.533,Organic,2360,49,0.0,0.0,0.0,507.02039999999994,2.0,0.5,yahoo
598,599,Ebba Christiansen,MI,41.9989,-85.371,Facebook,2564,25,,,,,,,gmail
599,600,Tatum Keeling,IL,40.5753,-90.7321,Organic,3009,25,,,,,,,gmail
600,601,Donavon Lowe,IN,38.2434,-86.8013,Organic,3079,32,,,,,,,gmail
601,602,Kaela Kunze,AK,61.9923,-146.769,Twitter,2822,29,67.7547,338.9183,1530.4496000000001,832.2015999999999,14.0,0.21428571428571427,gmail
602,603,Shyanne Wyman,WY,43.6943,-107.813,Google,2337,35,,,,,,,yahoo
603,604,Carlee Champlin,MT,46.3835,-104.512,Google,2940,42,827.2982,748.427,1162.2233,2116.443,21.0,0.0,gmail
604,605,Arturo Marquardt,OK,35.0062,-97.6164,Google,2528,32,1021.1952,1337.1109000000001,1171.1392,602.2882000000001,26.0,0.11538461538461539,yahoo
605,606,Abdullah Balistreri,MA,42.0631,-73.1617,Google,3018,48,,,,,,,hotmail
606,607,Laurel Pfannerstill,WY,42.7726,-106.153,Facebook,2134,43,0.0,776.7237,722.9408,406.765,11.0,0.0,gmail
607,608,Melisa Grimes,VT,43.9508,-72.172,Google,3002,59,67.7547,365.936,58.9266,0.0,3.0,0.0,gmail
608,609,Opal Herman,WI,45.0691,-89.9062,Facebook,2966,27,785.5058,1548.6568,959.8328999999999,598.14,26.0,0.07692307692307693,hotmail
609,610,Melisa DuBuque,SD,44.3253,-97.7446,Affiliate,3054,46,,,,,,,yahoo
610,611,Brice Stark,IA,42.0139,-95.7326,Facebook,3031,25,106.1661,411.1652,212.0619,1214.8483,10.0,0.1,gmail
611,612,Virginia Prohaska,MS,34.9341,-88.2798,Twitter,3078,44,155.82389999999998,220.3675,82.1392,0.0,3.0,0.0,yahoo
612,613,Kaden Lakin,SD,45.1066,-96.5885,Organic,3166,66,1940.5647000000001,2538.9239000000002,1137.8925,1069.3254,35.0,0.08571428571428572,hotmail
613,614,Geovanni Miller,MS,31.0521,-88.7486,Affiliate,3119,57,,,,,,,hotmail
614,615,Aubree Dibbert,MS,34.3852,-88.9017,Facebook,2508,45,,,,,,,hotmail
615,616,Rex Thiel,MS,33.9226,-88.4446,Facebook,3016,55,768.7354,0.0,3118.54,411.8071,11.0,0.18181818181818182,gmail
616,617,Isai Frami,CO,39.5818,-102.111,Affiliate,2690,43,541.8291,168.6246,76.829,1018.0221,10.0,0.2,yahoo
617,618,Avis Dickinson,TX,29.8811,-98.1813,Twitter,2252,62,,,,,,,hotmail
618,619,Vince Balistreri,MI,42.6835,-82.745,Twitter,2131,34,303.8688,244.013,81.5978,0.0,3.0,0.3333333333333333,gmail
619,620,Shyann Boehm,MI,46.7782,-89.0932,Google,2353,44,39.6878,929.8689000000002,641.6210000000001,1335.4231000000002,16.0,0.0625,yahoo
620,621,Jazlyn Mohr,ND,47.4426,-99.0177,Google,2444,43,421.56419999999997,362.8974,0.0,816.9377999999999,7.0,0.14285714285714285,yahoo
621,622,Augusta Lueilwitz,MT,48.0306,-110.581,Affiliate,2143,47,0.0,0.0,21.4245,600.8677,4.0,0.0,gmail
622,623,Olen Emmerich,ME,46.8403,-67.9674,Affiliate,3196,50,147.9836,0.0,33.2124,136.2495,3.0,0.3333333333333333,hotmail
623,624,Abbie Parisian,CA,38.8302,-121.026,Organic,2779,41,102.3702,1568.1311999999998,576.7943,1226.3237,18.0,0.1111111111111111,yahoo
624,625,Bulah Eichmann,IA,43.4787,-93.8897,Twitter,3010,48,,,,,,,yahoo
625,626,Columbus Swaniawski,GA,34.3978,-85.389,Facebook,2134,35,570.8652999999999,97.6052,366.62609999999995,1028.5339000000001,10.0,0.3,gmail
626,627,Efrain Spencer,NV,39.094,-119.152,Google,2998,26,455.9541,556.4586,233.23590000000002,0.0,5.0,0.2,gmail
627,628,Leopoldo Schmeler,KY,36.8575,-84.7524,Twitter,2587,57,,,,,,,hotmail
628,629,Yessenia Pagac,KY,37.9001,-82.9974,Facebook,3116,57,0.0,0.0,180.8928,963.0291,6.0,0.0,yahoo
629,630,Felicia Runte,CO,37.4792,-104.558,Organic,2702,41,59.6043,378.6444,266.254,762.6623,7.0,0.2857142857142857,yahoo
630,631,Blanca Schiller,SC,34.6932,-80.3078,Affiliate,2975,38,763.7863,376.8184,0.0,1719.302,11.0,0.18181818181818182,gmail
631,632,Ben Padberg,OK,36.4651,-94.7639,Facebook,2862,41,732.3836999999999,900.9228,966.3904,2698.6169,18.0,0.2222222222222222,yahoo
632,633,Conrad Renner,TX,31.1154,-97.417,Google,2321,65,,,,,,,gmail
633,634,Oswaldo Heaney,CO,39.3489,-105.177,Affiliate,3072,43,293.55060000000003,564.4089,30.536,74.0356,5.0,0.0,gmail
634,635,Rahul Kreiger,MS,30.979,-89.0645,Twitter,2895,64,0.0,0.0,292.6795,364.062,3.0,0.3333333333333333,hotmail
635,636,Danny Pollich,PA,39.9507,-79.3951,Google,2659,56,0.0,0.0,0.0,238.0998,1.0,0.0,gmail
636,637,Maximillian Zboncak,IN,41.4759,-86.2339,Twitter,2753,41,435.5135,73.1872,0.0,236.2011,5.0,0.0,hotmail
637,638,Lilian Roberts,IL,39.1524,-87.7098,Facebook,2644,34,0.0,462.64880000000005,574.913,442.1733,9.0,0.0,yahoo
638,639,Cortney Swift,KS,38.1203,-95.7667,Facebook,3183,37,,,,,,,gmail
639,640,Rafael Nikolaus,AK,62.1031,-145.967,Organic,2493,37,,,,,,,gmail
640,641,Blaise Legros,WA,46.901,-122.865,Twitter,3208,50,100.76160000000002,1290.4605999999999,188.7075,416.74019999999996,12.0,0.08333333333333333,hotmail
641,642,Sonny Beahan,OH,41.3225,-81.3751,Twitter,2455,48,1099.9225999999999,762.8259,647.0639,447.4873,18.0,0.2222222222222222,hotmail
642,643,Darrick Sawayn,WA,45.9752,-120.4,Google,2650,59,312.57370000000003,1152.2508,393.6406,667.6868,13.0,0.0,gmail
643,644,Florida Hackett,IL,42.1935,-88.7105,Affiliate,2321,34,1226.6897000000001,1495.3215,1246.9562,1885.3256,33.0,0.15151515151515152,yahoo
644,645,Ike Sporer,ME,44.4017,-70.961,Facebook,2640,36,,,,,,,gmail
645,646,Leopold Beer,IN,39.1859,-85.137,Organic,2329,48,0.0,1302.7638,1227.4685,706.2622,17.0,0.17647058823529413,gmail
646,647,Alison Paucek,AK,60.8018,-148.959,Google,2813,35,733.0095,88.0924,417.4472,543.1263,10.0,0.0,hotmail
647,648,Mckenzie Walter,AK,57.6967,-152.547,Google,2127,32,,,,,,,hotmail
648,649,Leanne Jacobs,FL,27.86,-81.9351,Google,2303,58,,,,,,,hotmail
649,650,Gia Abernathy,SD,43.9623,-101.393,Affiliate,2818,64,275.852,364.4622,379.4314,373.7289,15.0,0.2,gmail
650,651,Mallie Lang,OR,44.309,-120.791,Google,2882,60,,,,,,,yahoo
651,652,Kitty Kohler,WY,43.7022,-106.456,Facebook,2540,59,1070.7726,2140.9928,836.0286000000001,1571.8819,28.0,0.14285714285714285,hotmail
652,653,Shanie Spinka,TX,30.0099,-102.6,Facebook,3176,34,97.8502,0.0,213.24900000000002,2135.6258,11.0,0.0,gmail
653,654,Amya Turner,KS,39.0931,-97.2875,Twitter,2487,33,219.08769999999998,1794.3037,166.062,9129.687399999999,16.0,0.0625,hotmail
654,655,Shirley Okuneva,NY,42.3859,-75.8204,Affiliate,2233,27,968.4179999999999,539.3563,261.87390000000005,1922.3601999999998,13.0,0.15384615384615385,yahoo
655,656,Bettie Funk,SC,33.5251,-81.2359,Organic,2495,65,140.1022,256.698,70.2753,692.0892,5.0,0.0,hotmail
656,657,Itzel Wunsch,CA,34.5178,-120.427,Google,2650,36,141.641,229.2652,414.9532,867.2544,8.0,0.0,gmail
657,658,Amiya Purdy,IN,40.8554,-85.3552,Google,2787,30,1129.8328999999999,1825.5614,127.6815,795.7082,25.0,0.16,gmail
658,659,Wilford Bauch,NE,42.5549,-100.721,Twitter,2381,26,0.0,1263.4541,754.0791,408.1917,8.0,0.0,gmail
659,660,Jacinto Price,UT,37.8871,-111.38,Organic,2781,30,,,,,,,gmail
660,661,Moriah Ziemann,SD,45.8948,-101.871,Twitter,2976,62,,,,,,,yahoo
661,662,Magali Willms,TN,35.0673,-87.2734,Affiliate,2815,64,,,,,,,hotmail
662,663,Philip Fadel,AK,62.8627,-149.871,Organic,2533,50,70.298,561.7788,224.90300000000002,0.0,5.0,0.0,hotmail
663,664,Aidan Hagenes,IA,41.0653,-94.9103,Twitter,2601,64,147.8974,301.4973,1622.6443,1012.0801999999999,19.0,0.15789473684210525,hotmail
664,665,Petra Roob,NC,36.2285,-80.5179,Facebook,2127,27,725.4977,1727.8682,1304.9035,1795.3657,28.0,0.07142857142857142,hotmail
665,666,Andrew Carroll,CO,40.4417,-107.505,Google,2792,26,519.3104000000001,499.4796,0.0,1080.9951999999998,9.0,0.0,gmail
666,667,Isaac Schultz,MN,46.1798,-94.7901,Facebook,3048,52,790.5635,1027.6021,447.662,150.5587,11.0,0.09090909090909091,yahoo
667,668,Rae Lindgren,NE,41.2328,-98.6899,Organic,2982,48,756.4818,1226.9596999999999,800.0327,227.9361,11.0,0.09090909090909091,hotmail
668,669,Dimitri Wisoky,PA,40.1117,-75.7011,Google,2153,34,0.0,0.0,0.0,166.992,1.0,0.0,yahoo
669,670,Syble Collier,AR,33.9629,-94.4646,Organic,2458,29,195.7004,0.0,54.993,0.0,2.0,0.0,gmail
670,671,Hollie Schaefer,MT,47.2528,-111.251,Organic,2562,55,1301.0594,771.6255,1595.7747,1406.6118000000001,30.0,0.03333333333333333,hotmail
671,672,Robin Flatley,MS,34.2549,-88.9182,Affiliate,3173,58,0.0,0.0,1515.7188,905.1777,10.0,0.1,gmail
672,673,Lorena Predovic,FL,28.0167,-82.3266,Affiliate,3152,63,575.5284,220.9545,623.4470000000001,1595.1995000000002,16.0,0.0625,gmail
673,674,Evelyn Hahn,IA,42.9727,-93.6408,Twitter,2440,43,653.9679,146.3744,93.5282,45.7484,9.0,0.0,hotmail
674,675,Zelda Beatty,NE,40.8831,-97.7111,Facebook,2494,56,,,,,,,gmail
675,676,Aditya Schoen,TX,33.9453,-102.877,Google,2402,63,0.0,548.6736,546.1476,711.1022,9.0,0.2222222222222222,gmail
676,677,Brown Blick,AL,33.0287,-85.8203,Organic,2322,26,469.299,627.0255999999999,153.2178,1202.0508,9.0,0.2222222222222222,hotmail
677,678,Laverne Stanton,AK,57.2031,-153.307,Google,3214,39,480.827,2375.9632,1190.3071,785.7597000000001,20.0,0.15,hotmail
678,679,Theodora Mertz,IA,43.2272,-93.7495,Google,3110,27,919.9906,310.1409,544.4571000000001,2121.5546,15.0,0.13333333333333333,gmail
679,680,Alfonzo Hansen,MI,44.2348,-83.5723,Facebook,2161,45,,,,,,,gmail
680,681,Myrtice Harris,NH,43.0574,-71.9012,Twitter,2150,61,308.58590000000004,741.1128,553.039,1001.3745,15.0,0.0,gmail
681,682,Annetta Predovic,IL,39.8053,-89.3807,Affiliate,2325,50,140.8712,1482.2501,750.0201000000001,654.6681000000001,11.0,0.0,hotmail
682,683,Reuben Koelpin,TN,36.464,-88.8211,Organic,2223,42,425.2849,629.192,64.2735,2244.352,10.0,0.1,yahoo
683,684,Jacklyn Gorczany,MN,46.8152,-94.6287,Organic,2552,44,88.863,783.2906,327.5052,460.6064,11.0,0.09090909090909091,yahoo
684,685,Noel Tillman,TX,33.0933,-96.8011,Google,2172,66,,,,,,,yahoo
685,686,Dortha White,MT,47.7854,-111.08,Organic,2939,52,1520.7761,6803.4583,1915.1527,1049.5607,25.0,0.08,yahoo
686,687,Jamar Hickle,AK,68.1408,-151.734,Google,2201,49,0.0,650.9756,789.0355999999999,430.043,9.0,0.0,yahoo
687,688,Omari Homenick,MO,36.6481,-89.2069,Affiliate,2471,64,386.90099999999995,0.0,0.0,0.0,2.0,0.0,hotmail
688,689,Fern Carter,VA,37.4663,-78.7874,Organic,2368,58,,,,,,,hotmail
689,690,Giovani Thompson,MA,42.1817,-72.2563,Twitter,3047,32,0.0,607.5476000000001,485.01239999999996,227.0825,5.0,0.0,hotmail
690,691,Don Bosco,IL,38.2352,-89.9299,Affiliate,2132,49,793.3037,841.9941,1392.937,698.5944,21.0,0.14285714285714285,gmail
691,692,Janiya Lockman,ND,48.0769,-103.92,Google,2565,56,0.0,29.1838,0.0,0.0,1.0,0.0,hotmail
692,693,Margot Keeling,OH,39.5134,-83.5543,Organic,2498,58,27.5529,567.5613000000001,358.3886,463.3515,8.0,0.0,gmail
693,694,Unique Jerde,KY,38.3767,-83.8655,Organic,2426,48,884.7072000000001,377.91639999999995,332.5682,123.5833,11.0,0.09090909090909091,yahoo
694,695,Nyasia Sporer,NC,35.0987,-78.4441,Twitter,2470,41,,,,,,,hotmail
695,696,Aidan Rodriguez,UT,40.2519,-111.671,Google,2648,52,,,,,,,gmail
696,697,Delta Jerde,KY,38.2357,-84.3933,Organic,2488,33,713.0683,424.05740000000003,984.3063999999999,0.0,11.0,0.0,gmail
697,698,Amanda Mosciski,PA,41.4698,-75.5649,Organic,2727,27,,,,,,,yahoo
698,699,Brielle Kertzmann,IL,40.0073,-91.3793,Twitter,3209,53,0.0,81.5768,684.7891999999999,641.4368,7.0,0.14285714285714285,gmail
699,700,Ezequiel Turcotte,ND,48.2478,-97.4703,Twitter,2419,49,1566.9619,318.2101,78.14789999999999,1198.0430000000001,22.0,0.09090909090909091,yahoo
700,701,Pablo Lind,TX,31.8534,-95.2632,Facebook,2568,62,,,,,,,gmail
701,702,Nyasia Jakubowski,OR,45.5361,-122.607,Twitter,2830,34,310.9026,1144.4075,960.0901,648.8378,17.0,0.058823529411764705,yahoo
702,703,Lilliana Parker,PA,41.8131,-78.1391,Facebook,3105,58,,,,,,,yahoo
703,704,Stanley Stanton,TX,28.7773,-97.3885,Affiliate,2207,49,65.8922,722.3945,209.2752,330.50899999999996,9.0,0.0,gmail
704,705,Andres Kessler,KY,36.7981,-88.5469,Google,2985,43,0.0,825.4453,0.0,233.7333,7.0,0.14285714285714285,gmail
705,706,Ladarius Hyatt,AK,67.0845,-157.863,Facebook,2764,30,246.3303,534.2537,1183.5023999999999,1112.9257,23.0,0.08695652173913043,yahoo
706,707,Thad Kuvalis,CA,38.8718,-122.763,Google,2847,28,,,,,,,gmail
707,708,Davin Jewess,AZ,35.6171,-112.264,Facebook,2916,66,0.0,163.1536,267.04049999999995,280.5846,3.0,0.0,gmail
708,709,Erick O'Keefe,OR,44.9725,-116.86,Organic,2260,37,0.0,1118.1848,450.7028,1048.0175,12.0,0.08333333333333333,gmail
709,710,Kali Hodkiewicz,TN,36.1923,-82.659,Facebook,2142,51,820.2454,1406.7268,2041.5984,330.327,28.0,0.07142857142857142,hotmail
710,711,Ciara Green,IN,39.5196,-87.1212,Google,2222,57,,,,,,,yahoo
711,712,Dalton Renner,OH,41.4495,-81.539,Organic,2711,45,84.1354,807.0015,1255.0060999999998,724.8285,14.0,0.0,yahoo
712,713,Waldo Bartell,WA,47.7894,-117.275,Google,2934,45,1375.6354999999999,1034.99,1284.0869,1173.8659,23.0,0.0,yahoo
713,714,Dakota Mante,ID,43.7183,-111.744,Google,2844,30,257.43460000000005,1530.6245,648.7299,1604.6167,15.0,0.13333333333333333,yahoo
714,715,Lafayette Kertzmann,CO,40.1237,-104.528,Twitter,3020,43,0.0,162.388,0.0,0.0,1.0,0.0,yahoo
715,716,Ben Roob,NE,42.8496,-100.955,Facebook,3060,59,24.2475,0.0,443.7258000000001,0.0,2.0,0.0,gmail
716,717,Sarai Deckow,IN,39.6905,-86.5832,Facebook,2249,31,,,,,,,hotmail
717,718,Deon Gerlach,ND,48.108,-98.4536,Google,2266,33,160.4472,649.1481,326.4596,667.7008999999999,8.0,0.25,gmail
718,719,Odell McCullough,MN,47.0983,-91.8171,Twitter,2430,50,,,,,,,hotmail
719,720,German Ankunding,IL,40.9106,-88.8736,Google,2916,30,,,,,,,gmail
720,721,Charlene Bayer,SD,43.4111,-99.5686,Google,2398,48,0.0,0.0,0.0,99.61160000000001,2.0,0.5,hotmail
721,722,Leila Considine,NE,42.6302,-103.736,Facebook,3179,32,,,,,,,gmail
722,723,Shany Turcotte,NV,40.5366,-118.051,Organic,3143,33,737.9233,1115.0359,917.0973,1229.0918,21.0,0.09523809523809523,hotmail
723,724,Vito Haag,SC,33.4475,-79.6377,Organic,2878,46,631.0577,314.7988,660.7477,107.196,9.0,0.2222222222222222,yahoo
724,725,Sedrick Harvey,MT,46.074,-110.042,Facebook,2996,51,0.0,0.0,59.4681,0.0,1.0,0.0,hotmail
725,726,Abelardo Weissnat,OR,44.6354,-123.126,Affiliate,2904,44,,,,,,,yahoo
726,727,Cecelia Rolfson,KS,38.3349,-96.547,Facebook,2213,25,0.0,367.9344,163.1536,211.74919999999997,5.0,0.0,gmail
727,728,Burnice Daugherty,NC,35.2986,-79.5483,Facebook,2458,25,395.3532,213.5745,326.1512,752.853,10.0,0.0,gmail
728,729,Maurice Rippin,MN,44.635,-94.8743,Affiliate,2249,34,510.89840000000004,0.0,140.2923,25.0988,4.0,0.0,gmail
729,730,Arielle Mitchell,WI,45.0184,-89.4576,Facebook,3200,64,,,,,,,hotmail
730,731,Eldon Herman,CO,38.0828,-104.138,Twitter,2803,27,434.7663,274.0523,37.7983,247.82299999999998,8.0,0.25,yahoo
731,732,Barry McKenzie,SD,44.7462,-97.2243,Affiliate,3046,31,,,,,,,hotmail
732,733,Jerry Stracke,MO,38.8438,-92.2123,Google,3024,34,0.0,0.0,0.0,46.7641,1.0,0.0,hotmail
733,734,Weldon McLaughlin,OR,43.8787,-123.004,Twitter,3108,56,,,,,,,yahoo
734,735,Taryn Klocko,CA,36.0675,-118.963,Affiliate,2544,65,,,,,,,hotmail
735,736,Valerie Davis,VA,37.3539,-80.6311,Organic,3111,65,1149.4047,474.8323,1054.9857,739.6813999999999,17.0,0.17647058823529413,yahoo
736,737,Hipolito Kulas,ME,44.5014,-70.1905,Organic,2861,40,483.094,431.1884,74.9455,319.5727,9.0,0.0,yahoo
737,738,Bonita Hoppe,IA,41.7447,-95.2307,Facebook,3163,54,,,,,,,gmail
738,739,Catalina Smith,NC,35.4067,-79.9103,Twitter,3131,65,,,,,,,yahoo
739,740,Aida Cruickshank,MO,40.2433,-92.2969,Affiliate,2228,59,,,,,,,hotmail
740,741,Marcelo Ferry,AK,68.1408,-151.734,Affiliate,2166,58,1470.8224,1541.2611000000002,1631.4472,1311.9193,24.0,0.08333333333333333,gmail
741,742,Garret Kulas,MI,44.7583,-83.3471,Twitter,2588,63,,,,,,,hotmail
742,743,Stacy Considine,AK,62.214,-149.954,Affiliate,3154,44,,,,,,,yahoo
743,744,Reid Reilly,NY,43.8346,-74.5498,Google,2929,43,270.656,508.9099,506.7415,1411.502,13.0,0.15384615384615385,hotmail
744,745,Kurtis Parker,ID,42.9446,-116.06,Affiliate,2866,33,,,,,,,gmail
745,746,Andre Stamm,WI,45.2701,-91.5852,Twitter,2847,64,102.1452,0.0,904.184,1397.9224,11.0,0.18181818181818182,hotmail
746,747,Lexi Adams,TX,32.139,-95.3808,Google,2995,25,,,,,,,hotmail
747,748,Eden Jenkins,VA,37.2136,-80.5379,Organic,2652,62,195.7004,0.0,0.0,0.0,1.0,0.0,yahoo
748,749,Melissa Cormier,MO,36.6164,-94.5198,Affiliate,3149,62,,,,,,,hotmail
749,750,Jermain Kohler,GA,30.9335,-83.8215,Affiliate,2273,45,603.231,481.93399999999997,0.0,247.149,8.0,0.125,hotmail
750,751,Eli Haag,MT,45.4286,-106.06,Affiliate,3109,51,,,,,,,hotmail
751,752,Vivianne Roob,GA,32.0185,-83.2361,Affiliate,2399,61,,,,,,,yahoo
752,753,Rebekah Lueilwitz,NC,35.2215,-83.8764,Google,3207,65,,,,,,,hotmail
753,754,Ellsworth Watsica,CO,38.7089,-106.297,Google,2137,66,1465.7862,1925.3158,1481.008,479.62440000000004,18.0,0.16666666666666666,hotmail
754,755,Cedrick Kling,MT,48.248,-112.793,Twitter,2344,37,832.4754,0.0,54.993,523.0278,8.0,0.125,yahoo
755,756,Kennedi Waters,MN,46.2673,-94.8311,Twitter,2398,58,1253.8528000000001,1154.2439,331.435,607.4783,17.0,0.058823529411764705,hotmail
756,757,Teresa Hodkiewicz,CO,39.8196,-106.649,Organic,2414,29,0.0,202.42520000000002,0.0,1153.5592,6.0,0.0,hotmail
757,758,Dolly Bernhard,AR,34.673,-90.9358,Organic,2243,27,438.4604,313.3615,285.5923,475.6599,8.0,0.25,gmail
758,759,Nicole Walker,VT,43.7393,-73.21,Organic,2531,60,,,,,,,yahoo
759,760,Louie Willms,WY,44.4667,-109.646,Twitter,3145,58,0.0,0.0,0.0,309.5932,1.0,0.0,gmail
760,761,Newton Klocko,MS,31.8513,-89.5642,Affiliate,2919,57,,,,,,,gmail
761,762,Marc Schmitt,AK,64.1133,-145.715,Twitter,2612,66,689.2998,342.8912,197.98289999999997,562.9697,12.0,0.16666666666666666,hotmail
762,763,Ezekiel McLaughlin,ME,44.0843,-69.4247,Twitter,2836,52,436.0946,342.8912,0.0,318.5331,5.0,0.0,yahoo
763,764,Ike Keebler,IA,40.8419,-95.0638,Affiliate,2975,30,,,,,,,gmail
764,765,Vicente Kessler,MI,42.5752,-83.4226,Google,2425,44,,,,,,,gmail
765,766,Zula Boehm,KS,37.9001,-95.4401,Organic,2551,41,0.0,466.083,370.75559999999996,0.0,3.0,0.0,hotmail
766,767,Clementina Johnston,OR,44.2111,-116.98,Organic,3159,63,869.0511999999999,979.5014000000001,702.3869,787.3814,15.0,0.13333333333333333,gmail
767,768,Schuyler Hills,PA,41.6971,-76.2647,Facebook,2440,35,607.7376,1429.5961,633.0966,1172.6157,12.0,0.08333333333333333,gmail
768,769,Maverick Roob,WY,41.5178,-109.786,Affiliate,2275,51,0.0,504.4734,84.285,116.6262,5.0,0.0,hotmail
769,770,Jay Bruen,OR,44.7673,-117.247,Twitter,2338,31,0.0,934.2055,1260.7535,548.4594,15.0,0.06666666666666667,yahoo
770,771,Kevon Morar,OK,35.9429,-96.5973,Affiliate,2204,63,,,,,,,yahoo
771,772,Santa Harvey,ID,47.8302,-116.903,Twitter,2457,51,,,,,,,gmail
772,773,Willis Kuvalis,CA,37.0261,-120.708,Affiliate,2944,37,2158.9415,1382.0566000000001,1641.4123,447.546,35.0,0.05714285714285714,yahoo
773,774,Celestino Bernhard,ND,46.7897,-102.307,Affiliate,2311,24,118.6387,1378.7884000000001,61.0753,590.4753,16.0,0.0,yahoo
774,775,Osvaldo Steuber,IL,39.4219,-87.8772,Organic,2967,50,,,,,,,hotmail
775,776,Clemens Hansen,WV,37.7549,-82.1158,Organic,2923,62,0.0,446.16960000000006,408.07450000000006,0.0,3.0,0.0,gmail
776,777,Mozell Frami,NY,43.6115,-75.1007,Organic,2442,56,333.2565,718.6709999999999,683.7234,4004.6398,17.0,0.23529411764705882,gmail
777,778,Lavina Schultz,NJ,39.5496,-74.9843,Affiliate,2141,32,188.5427,1232.6281999999999,404.7197,786.7168,13.0,0.07692307692307693,hotmail
778,779,Carrie Heidenreich,NE,40.4987,-101.462,Google,2630,55,,,,,,,gmail
779,780,Fleta Leuschke,MO,39.8844,-93.4423,Affiliate,2210,28,472.962,95.1825,130.1886,1474.4917,10.0,0.1,yahoo
780,781,Muriel Labadie,TX,31.6453,-98.7932,Affiliate,2991,60,,,,,,,yahoo
781,782,Iva Waelchi,MO,37.8124,-91.8097,Facebook,3123,55,1371.279,275.28520000000003,666.6019,473.62159999999994,12.0,0.16666666666666666,yahoo
782,783,Shayne Crona,MT,46.6247,-109.985,Facebook,2748,61,0.0,171.4056,698.3304,0.0,3.0,0.0,gmail
783,784,Felton Keebler,AL,31.7721,-88.3061,Twitter,3009,59,215.54149999999998,5574.564000000001,1031.3055,625.0666,16.0,0.125,gmail
784,785,Jewell Wolf,WI,45.5133,-90.7531,Twitter,2538,42,553.5745000000001,960.9613,498.4472,443.3902,16.0,0.1875,yahoo
785,786,Karine Mante,VA,38.532,-77.9146,Google,2974,27,,,,,,,gmail
786,787,Dina Wolf,GA,31.7273,-82.869,Facebook,2726,46,0.0,475.7268,0.0,0.0,1.0,0.0,yahoo
787,788,Conner Windler,CO,37.303,-104.807,Google,2390,28,127.6815,176.609,178.4043,122.3967,4.0,0.0,gmail
788,789,Cierra Kuvalis,SD,44.7079,-101.117,Affiliate,2187,52,908.7363,1149.8124,452.34839999999997,270.01660000000004,15.0,0.0,yahoo
789,790,Eudora Renner,GA,33.1993,-84.7878,Twitter,2907,64,1119.3429,140.4637,100.1068,1368.2129999999997,14.0,0.14285714285714285,gmail
790,791,Amina O'Reilly,NC,35.5321,-78.9971,Organic,2934,42,784.9305,215.76700000000002,251.1516,715.0642,13.0,0.0,gmail
791,792,Maximillia Ebert,WV,39.332,-79.8101,Facebook,2173,63,283.1096,8872.0136,2398.3785,838.7648,14.0,0.14285714285714285,hotmail
792,793,Estrella Reichert,NM,35.5339,-103.061,Twitter,2368,43,1214.6791,1183.4335,149.8944,324.4873,22.0,0.09090909090909091,hotmail
793,794,Elody Cormier,WV,38.8727,-81.6926,Twitter,2248,66,711.7413999999999,422.0462,1096.7202,1165.8512,21.0,0.09523809523809523,hotmail
794,795,Vada West,NE,40.7866,-99.4129,Affiliate,2710,65,672.2998,262.6875,1125.6356,635.1995,14.0,0.14285714285714285,hotmail
795,796,Giovanna Tillman,WI,43.7286,-89.5407,Organic,2772,48,,,,,,,hotmail
796,797,Gretchen Muller,PA,41.6161,-80.1679,Google,3056,54,69.881,709.3584000000001,52.8083,283.3059,7.0,0.14285714285714285,hotmail
797,798,Arden Jast,OH,41.0487,-83.274,Facebook,3179,36,336.8619,0.0,65.9847,114.9861,5.0,0.0,yahoo
798,799,Eudora Greenholt,WI,44.3048,-91.4397,Organic,2549,24,1552.2848999999999,852.0606,1165.7402,1486.0834,28.0,0.03571428571428571,gmail
799,800,Ransom Murphy,GA,32.375,-81.9161,Facebook,2468,37,735.0454,1756.002,618.7208,2205.3392,30.0,0.13333333333333333,gmail
800,801,Lavon Mante,MI,43.1902,-84.2902,Organic,2433,53,964.7964,2543.4239000000002,1726.6284,642.345,27.0,0.07407407407407407,hotmail
801,802,Lavada Kuhic,CT,41.2769,-73.332,Google,2139,56,,,,,,,gmail
802,803,Stewart Marks,TX,33.6118,-101.574,Organic,2785,24,344.31600000000003,395.8742,531.436,397.606,13.0,0.07692307692307693,gmail
803,804,Verna Davis,LA,30.4023,-92.47,Google,2148,26,573.7688,246.1371,1072.8367,657.6451,17.0,0.058823529411764705,hotmail
804,805,Lewis Doyle,IN,41.5195,-86.2736,Google,2456,43,,,,,,,gmail
805,806,Nichole Stanton,TX,31.9334,-98.6479,Affiliate,2158,57,,,,,,,yahoo
806,807,Juanita Altenwerth,MT,45.6637,-109.102,Organic,3180,26,48.196299999999994,414.8217,500.0444,0.0,6.0,0.0,hotmail
807,808,Grady Raynor,GA,32.2872,-83.7645,Facebook,2685,32,0.0,744.6556,178.027,156.3404,4.0,0.25,hotmail
808,809,Francesco Grant,MI,45.6369,-84.8047,Facebook,2373,31,0.0,165.452,0.0,390.13239999999996,4.0,0.0,hotmail
809,810,Keon Dickinson,CO,40.3157,-103.782,Facebook,2155,29,,,,,,,hotmail
810,811,Grant Breitenberg,TX,30.3465,-100.577,Affiliate,2946,39,281.394,0.0,0.0,222.1068,2.0,0.0,gmail
811,812,Vincenza Wunsch,CA,34.2315,-119.048,Twitter,2431,49,,,,,,,hotmail
812,813,Roman Walker,AR,35.3203,-90.587,Affiliate,2741,44,1960.3398,565.6337000000001,432.0358,425.91060000000004,17.0,0.0,hotmail
813,814,Miguel McGlynn,MA,42.2477,-71.6782,Facebook,2766,43,82.65870000000001,0.0,293.6632,127.0179,4.0,0.25,hotmail
814,815,Aniya Langosh,AK,68.1408,-151.734,Organic,3041,51,0.0,51.9413,0.0,0.0,1.0,0.0,hotmail
815,816,Luisa Swaniawski,PA,41.8742,-76.2111,Facebook,3194,40,417.5215,695.7158999999999,899.8485999999999,2331.0366,19.0,0.05263157894736842,hotmail
816,817,Nova Leuschke,PA,41.9779,-77.8008,Affiliate,3126,58,249.59300000000002,821.9471,672.3941,406.765,15.0,0.0,yahoo
817,818,Eladio Parisian,GA,32.5076,-83.6624,Organic,2660,59,46.899,40.3833,299.2942,494.298,5.0,0.2,gmail
818,819,Jaime Hauck,AR,36.3514,-91.2165,Affiliate,2293,61,,,,,,,gmail
819,820,Garett Hegmann,VA,36.7168,-79.3608,Facebook,2524,44,591.5257999999999,1470.6548,489.3175,596.7470000000001,20.0,0.0,gmail
820,821,Haylie Bosco,OH,39.4244,-83.3649,Affiliate,2878,41,280.3196,0.0,611.0391000000001,218.4372,3.0,0.0,hotmail
821,822,Morton Funk,CO,38.5942,-104.214,Affiliate,2975,58,1063.1026,1209.9059000000002,1065.0109000000002,1320.6499999999999,25.0,0.2,gmail
822,823,Pattie Gutkowski,NE,40.5363,-96.0679,Twitter,3184,37,856.6936000000001,217.4198,229.7258,1303.3741999999997,11.0,0.09090909090909091,hotmail
823,824,Justine Olson,PA,40.5008,-78.2599,Organic,3099,54,29.5172,20.4105,357.07230000000004,42.4797,5.0,0.2,gmail
824,825,Milton Baumbach,SD,45.3564,-98.0547,Affiliate,2467,64,,,,,,,hotmail
825,826,Jo Gusikowski,TX,31.9914,-101.92,Organic,3135,46,,,,,,,hotmail
826,827,Idella Wehner,TX,33.6401,-97.2448,Facebook,2250,49,,,,,,,yahoo
827,828,Irma Waters,KY,37.3465,-85.5961,Google,2856,64,0.0,79.23939999999999,207.55939999999998,0.0,4.0,0.0,yahoo
828,829,Elva Herman,MN,44.8919,-94.5994,Twitter,2872,37,123.9572,546.9513999999999,279.9737,341.6266,11.0,0.0,hotmail
829,830,Joshuah Gleichner,ND,48.8774,-99.1223,Organic,2493,55,226.15090000000004,766.6931999999999,290.03520000000003,660.1737,11.0,0.0,gmail
830,831,Marques Koch,AR,34.2052,-91.688,Affiliate,2725,48,93.798,262.8573,757.3551,286.0421,9.0,0.1111111111111111,gmail
831,832,Norberto Dach,MO,36.8629,-93.018,Affiliate,2804,60,796.4421,1433.5808,392.6728,341.0184,14.0,0.14285714285714285,gmail
832,833,Paxton Fay,MN,46.3152,-93.8694,Affiliate,2889,65,,,,,,,yahoo
833,834,Haleigh Bayer,MT,46.948,-105.664,Twitter,2715,39,155.82389999999998,232.5434,267.04049999999995,0.0,4.0,0.25,yahoo
834,835,Gloria Conn,WI,45.197,-91.288,Organic,2451,61,0.0,100.1898,200.0688,84.6786,3.0,0.0,yahoo
835,836,Janet Stiedemann,AK,62.4575,-151.03,Twitter,2900,42,0.0,0.0,0.0,3732.048,2.0,0.0,hotmail
836,837,Bonita King,CO,38.7511,-105.531,Facebook,3080,50,0.0,156.29160000000002,0.0,89.6534,2.0,0.0,hotmail
837,838,Kristina Little,IN,40.5428,-87.2134,Organic,2550,28,,,,,,,hotmail
838,839,Emelia Tromp,CO,38.37,-108.918,Google,2379,51,1297.9381,943.3635999999999,1091.3398,342.6243,20.0,0.05,hotmail
839,840,Eusebio Eichmann,WA,48.0325,-121.953,Organic,2944,56,571.9656,0.0,0.0,0.0,3.0,0.0,hotmail
840,841,Gudrun Blanda,OR,45.4881,-123.005,Affiliate,2335,57,370.2508,810.5968,2920.0192,2797.7958,21.0,0.09523809523809523,gmail
841,842,Kieran Roob,AK,60.737,-151.205,Twitter,2662,38,,,,,,,yahoo
842,843,Zackery Kuhn,MT,47.8003,-110.999,Affiliate,3005,32,885.6229999999999,0.0,0.0,90.833,3.0,0.3333333333333333,hotmail
843,844,Vida Crist,GA,34.646,-85.3579,Twitter,2185,60,133.2945,0.0,0.0,311.4321,3.0,0.0,gmail
844,845,Antwon Steuber,MS,33.5398,-90.5841,Google,2737,33,,,,,,,hotmail
845,846,Janiya Emard,VA,37.9783,-79.3201,Facebook,2662,30,,,,,,,gmail
846,847,Margarita Tromp,KS,38.0567,-95.1344,Organic,2502,48,,,,,,,yahoo
847,848,Tressie Willms,IN,41.5546,-87.1865,Facebook,2377,63,717.1814999999999,616.0886,732.4698000000001,101.8034,13.0,0.15384615384615385,hotmail
848,849,Misael Beier,GA,30.9258,-84.5847,Twitter,2623,65,,,,,,,yahoo
849,850,Carolanne Upton,AL,34.9193,-86.4167,Organic,2423,56,228.4597,557.7395,55.4892,1079.6106,12.0,0.25,gmail
850,851,Ryann Rice,TX,35.8908,-100.374,Facebook,2446,49,0.0,385.9425,95.3586,0.0,3.0,0.3333333333333333,hotmail
851,852,Leon Labadie,MT,47.5537,-110.675,Google,2994,58,,,,,,,yahoo
852,853,Jacinthe Howell,MI,43.713,-82.8248,Google,2828,48,,,,,,,yahoo
853,854,Sigmund Mayer,AL,31.9416,-85.18,Twitter,2345,64,292.6196,0.0,892.4397,55.668,7.0,0.14285714285714285,hotmail
854,855,Keshaun Carroll,PA,41.1434,-77.0597,Google,2336,50,,,,,,,hotmail
855,856,Laurie Sanford,NY,42.4569,-78.9825,Affiliate,3145,33,,,,,,,hotmail
856,857,Rudy Larkin,WI,44.7556,-88.8731,Google,2234,64,319.7442,100.1898,100.8674,260.3702,6.0,0.16666666666666666,yahoo
857,858,Angie Hills,MT,45.7573,-110.259,Affiliate,2630,62,79.4724,0.0,0.0,72.8124,2.0,0.0,yahoo
858,859,Julio Beatty,NJ,40.6438,-74.3455,Google,2348,52,0.0,564.2315,43.3962,237.0234,6.0,0.0,gmail
859,860,Lesly Fay,CA,35.6203,-119.173,Google,2804,49,0.0,0.0,81.6149,74.0356,2.0,0.0,gmail
860,861,Dulce Conroy,MS,34.7675,-88.1553,Facebook,2838,60,67.7547,0.0,0.0,1017.0192999999999,6.0,0.0,gmail
861,862,Electa Schroeder,MT,47.3611,-114.788,Google,2348,59,,,,,,,yahoo
862,863,Paolo Kshlerin,LA,31.6978,-93.7427,Google,2518,66,0.0,0.0,0.0,486.6237,3.0,0.3333333333333333,yahoo
863,864,Gunnar Hilpert,FL,28.2836,-81.3443,Twitter,2672,53,1300.2215,1226.8065000000001,45.1817,1731.195,21.0,0.14285714285714285,yahoo
864,865,Dagmar Sawayn,NE,40.5484,-100.898,Twitter,2280,35,160.5972,286.8444,0.0,514.3404,5.0,0.2,gmail
865,866,Maybelle Romaguera,NV,37.6561,-114.497,Google,2868,34,472.1982,155.82389999999998,49.7686,0.0,3.0,0.0,yahoo
866,867,Jeffery Frami,AK,69.7419,-163.005,Affiliate,2980,45,,,,,,,yahoo
867,868,Danny Oberbrunner,KY,37.8792,-84.8322,Affiliate,2588,62,583.0676000000001,1415.3657,183.00350000000003,2059.6324,13.0,0.23076923076923078,yahoo
868,869,Candace Greenholt,TX,32.2026,-96.9183,Google,2548,37,160.0279,0.0,463.9054,997.3353000000001,8.0,0.125,gmail
869,870,Sigrid Denesik,TX,31.3024,-103.894,Organic,2978,25,131.7844,468.9575,0.0,371.87129999999996,6.0,0.0,gmail
870,871,Luis Mitchell,MT,45.8478,-109.918,Organic,2789,62,147.9836,997.8529,497.35200000000003,826.4192,16.0,0.0625,yahoo
871,872,Cedrick Larkin,SC,34.7147,-83.2255,Twitter,2453,31,,,,,,,gmail
872,873,Cory Tromp,NE,42.5941,-100.144,Twitter,2735,64,,,,,,,yahoo
873,874,Johathan Ebert,TX,30.543,-95.2862,Organic,2610,51,88.863,0.0,468.2139,212.8842,5.0,0.0,yahoo
874,875,Trudie Muller,FL,27.3718,-80.391,Facebook,2614,41,790.0636999999999,957.8675000000001,0.0,302.1654,8.0,0.125,gmail
875,876,Laurie Greenholt,AL,31.7543,-86.814,Google,3156,41,,,,,,,hotmail
876,877,Larry Paucek,ID,44.8286,-116.451,Affiliate,2230,44,480.276,404.0676,0.0,0.0,3.0,0.0,hotmail
877,878,Chanel Rippin,KY,36.6825,-88.8683,Facebook,2284,55,167.85629999999998,608.9347,119.7627,78.2198,9.0,0.2222222222222222,yahoo
878,879,Merle Moen,NE,40.1728,-99.4659,Twitter,2970,43,,,,,,,yahoo
879,880,Domingo Waters,NC,35.3121,-79.578,Affiliate,3099,61,,,,,,,hotmail
880,881,Kaya Schoen,LA,30.2695,-93.649,Google,2957,59,123.82320000000001,53.4052,0.0,156.4396,4.0,0.0,yahoo
881,882,Geovanny Schuster,OH,38.8532,-83.6787,Organic,2488,33,542.6174,531.3129,979.5984,625.7021,18.0,0.16666666666666666,yahoo
882,883,Dennis McCullough,MI,44.9182,-84.5124,Facebook,2954,57,1305.7876999999999,560.4815000000001,1079.4829,1261.1508,16.0,0.0625,yahoo
883,884,Daron Parker,IA,41.5769,-95.7388,Facebook,3064,55,,,,,,,hotmail
884,885,Eldred Dietrich,UT,37.6402,-113.358,Facebook,3100,65,697.575,224.48860000000002,1245.8467,491.4942000000001,15.0,0.13333333333333333,yahoo
885,886,Howell Price,CA,39.1368,-123.341,Twitter,3190,47,1162.7953,1608.8716,1678.1304,2052.3628,32.0,0.0625,hotmail
886,887,Osbaldo Lueilwitz,AK,61.8699,-158.113,Affiliate,2982,42,,,,,,,yahoo
887,888,Bud Bruen,OH,40.2588,-83.185,Organic,2395,66,103.8826,28.9588,180.3931,692.5797,5.0,0.0,yahoo
888,889,Thea Gottlieb,IA,42.235,-95.132,Affiliate,2742,49,,,,,,,gmail
889,890,Loren Weimann,SD,45.2975,-98.6608,Google,2782,27,834.3317,1257.6997999999999,327.5052,1022.4134,14.0,0.07142857142857142,yahoo
890,891,Destany Dietrich,SD,44.1826,-96.9977,Facebook,3156,58,,,,,,,yahoo
891,892,Muhammad Kub,AL,33.9292,-86.4875,Google,2572,35,447.8595,407.884,283.11030000000005,1140.3927,9.0,0.0,hotmail
892,893,Audie Hane,IL,42.2031,-90.2385,Organic,3044,63,1533.6714,1853.0807,1378.9269,1072.0867,26.0,0.11538461538461539,gmail
893,894,Rosalinda Cronin,CA,38.7473,-122.437,Facebook,2223,48,,,,,,,gmail
894,895,Gage Stiedemann,ID,45.9997,-116.41,Google,2855,42,,,,,,,gmail
895,896,Christophe Durgan,NC,35.6316,-79.7428,Affiliate,2925,47,379.97180000000003,761.2161000000001,0.0,302.28470000000004,8.0,0.0,gmail
896,897,Mya Aufderhar,VA,37.8925,-78.9086,Twitter,3169,48,0.0,85.7228,0.0,58.3131,2.0,0.5,hotmail
897,898,Cornelius Bogisich,NY,44.7915,-74.3895,Twitter,2317,25,,,,,,,hotmail
898,899,Samara Hegmann,NE,41.3518,-102.861,Twitter,2994,54,303.8688,0.0,0.0,62.7228,2.0,0.0,yahoo
899,900,Kathryne Hoppe,SD,44.2674,-102.898,Organic,2536,36,210.2397,435.5483,146.4435,956.399,11.0,0.18181818181818182,gmail
900,901,Libbie Larkin,NH,43.9762,-72.0257,Affiliate,3139,41,0.0,73.1872,0.0,178.027,2.0,0.5,yahoo
901,902,Anjali Parker,CA,33.9119,-117.403,Facebook,2319,30,634.0998999999999,443.4132,550.0975999999999,428.1683,20.0,0.15,hotmail
902,903,Felicity Greenfelder,TX,31.3296,-96.6388,Facebook,2338,65,,,,,,,hotmail
903,904,Tracey Denesik,MN,43.6164,-96.0073,Facebook,2668,62,39.7362,132.22050000000002,670.6862,178.4608,6.0,0.3333333333333333,gmail
904,905,Delfina Orn,TN,36.3584,-82.5068,Affiliate,2916,44,1059.5556,561.8476,305.5508,1134.5386,12.0,0.16666666666666666,yahoo
905,906,Dale Halvorson,MT,47.3065,-114.326,Google,2871,54,351.9498,372.8664,501.2409,379.6544,10.0,0.1,gmail
906,907,Louie Corkery,MO,37.8837,-92.7506,Google,2568,59,230.39389999999997,619.1365,2121.1305,252.0945,13.0,0.15384615384615385,yahoo
907,908,Toby Yundt,WY,42.9554,-108.876,Affiliate,2171,55,535.4554,756.8088,0.0,643.0436000000001,6.0,0.16666666666666666,gmail
908,909,Sophie Blanda,KS,37.6847,-98.3192,Google,3027,34,459.784,816.6621,723.8282,1516.0593,19.0,0.05263157894736842,hotmail
909,910,Jonas Von,KY,37.1193,-83.3545,Facebook,3197,51,599.71,297.638,0.0,359.08279999999996,6.0,0.0,hotmail
910,911,Ivory McCullough,AR,36.0206,-91.7992,Google,2693,63,4697.3379,970.6353,4101.2887,100.3952,17.0,0.058823529411764705,yahoo
911,912,Rickie Vandervort,TX,30.4685,-97.1747,Affiliate,3042,38,149.891,475.009,0.0,1458.6421,8.0,0.125,yahoo
912,913,Destiney Ortiz,ID,43.6196,-116.78,Facebook,2993,34,776.3772,836.8457999999999,540.4066,3050.8421000000003,23.0,0.13043478260869565,hotmail
913,914,Alfonzo Casper,IL,42.0019,-88.8321,Organic,3117,27,45.6546,85.7228,0.0,242.53609999999998,4.0,0.0,yahoo
914,915,Dorian Predovic,MS,32.9684,-89.7284,Organic,3220,57,278.2086,156.65019999999998,100.0344,684.4365999999999,6.0,0.16666666666666666,gmail
915,916,Everette Kuphal,ND,47.5167,-101.311,Affiliate,2645,39,529.727,279.9608,872.5258,3051.2753000000002,21.0,0.047619047619047616,yahoo
916,917,Franco Sauer,CO,38.3699,-105.754,Google,2301,27,615.4345000000001,1722.0731,1075.4406,187.0564,17.0,0.11764705882352941,yahoo
917,918,Margret Johnston,SD,44.295,-99.2056,Twitter,2473,59,425.1336,2515.3995,3434.4007,1960.6241,45.0,0.06666666666666667,yahoo
918,919,Oscar Olson,MN,46.7837,-96.715,Organic,3174,58,1439.3485,1500.3111,823.1923999999999,564.1169,17.0,0.11764705882352941,hotmail
919,920,Wilmer Volkman,OK,35.2325,-97.1234,Twitter,2864,60,,,,,,,gmail
920,921,Bryce Erdman,CO,38.7197,-104.034,Organic,3001,60,,,,,,,hotmail
921,922,Jeffry Grimes,WI,45.9914,-91.8777,Organic,3083,27,,,,,,,hotmail
922,923,Conrad King,NM,32.3649,-108.642,Organic,3091,66,455.80320000000006,454.78,0.0,469.0212,4.0,0.0,yahoo
923,924,Agnes Braun,MS,30.9224,-88.7026,Facebook,2359,65,175.44240000000002,367.50620000000004,604.8734000000001,820.61,14.0,0.21428571428571427,yahoo
924,925,Archibald Lowe,CA,34.1874,-118.346,Facebook,2931,55,143.0736,218.408,187.71120000000002,503.8529,7.0,0.0,hotmail
925,926,Burnice Doyle,KY,37.0347,-84.9719,Twitter,3163,66,,,,,,,gmail
926,927,Laura Bahringer,NE,41.5615,-101.57,Google,2988,37,215.90130000000002,1185.9619,100.8674,447.2619,8.0,0.25,yahoo
927,928,Madyson Vandervort,LA,31.7017,-92.1998,Google,2307,47,,,,,,,yahoo
928,929,Winifred Runolfsson,ND,48.9377,-102.531,Organic,2380,24,215.9848,1249.4016,417.4195,500.7225,12.0,0.08333333333333333,gmail
929,930,Walker Harris,IL,40.3199,-88.6031,Twitter,2603,64,542.85,542.7966,0.0,218.4372,7.0,0.14285714285714285,yahoo
930,931,Maye Rath,VT,42.9773,-73.2045,Twitter,2378,39,986.0984,678.2042000000001,1090.6853,983.2019999999999,19.0,0.0,yahoo
931,932,Gaston Dicki,MT,46.014,-111.35,Organic,2382,47,471.68980000000005,219.4508,594.1611,590.1732,10.0,0.1,hotmail
932,933,Aurelio Parker,TX,30.3555,-97.0776,Affiliate,3074,31,339.49109999999996,0.0,455.6834,726.396,7.0,0.14285714285714285,hotmail
933,934,Douglas Prosacco,CA,36.6409,-121.652,Twitter,2167,46,592.9158,777.5184,346.6458,386.95439999999996,8.0,0.0,hotmail
934,935,Taryn Schoen,MI,42.6916,-85.766,Google,2867,58,801.019,1005.4281,595.6904999999999,484.21889999999996,14.0,0.07142857142857142,hotmail
935,936,Jailyn Hickle,WI,45.5957,-91.7962,Organic,2303,65,379.836,342.533,509.962,276.7425,11.0,0.09090909090909091,hotmail
936,937,Adonis Ritchie,OH,40.0894,-80.9499,Twitter,2368,57,53.927,0.0,0.0,0.0,1.0,0.0,gmail
937,938,Heidi Glover,LA,29.6557,-91.3974,Twitter,2142,45,,,,,,,gmail
938,939,Coleman Beier,WA,48.3321,-118.155,Affiliate,2423,55,1186.8255,1006.1943,2725.1158,274.4904,16.0,0.0,yahoo
939,940,Jude Ward,MO,39.1428,-93.9051,Affiliate,2966,56,2051.0127,693.4353000000001,1362.4818,946.4837,19.0,0.05263157894736842,gmail
940,941,Eduardo McKenzie,TX,29.366,-96.001,Organic,3011,45,,,,,,,yahoo
941,942,Lacy Gleichner,TX,33.7677,-102.504,Google,3012,50,1229.2776,1680.2782,399.0924,739.1249,23.0,0.08695652173913043,gmail
942,943,Phoebe Mann,NC,35.0889,-76.7279,Organic,2287,60,704.7547999999999,969.8808,374.1128,191.01,9.0,0.1111111111111111,gmail
943,944,Hollis Rau,MT,46.4195,-104.964,Organic,3200,51,0.0,157.3994,0.0,154.1782,3.0,0.0,gmail
944,945,Madalyn Leuschke,AL,34.6336,-86.0458,Twitter,2966,51,,,,,,,hotmail
945,946,Jorge Bins,OH,41.0274,-84.4571,Google,3176,26,,,,,,,gmail
946,947,Omer Powlowski,IA,41.31,-93.6238,Twitter,2180,32,,,,,,,hotmail
947,948,Anderson Schinner,WY,42.6289,-105.697,Organic,2484,52,,,,,,,yahoo
948,949,Amanda Boehm,SC,34.9715,-81.4288,Google,3163,60,203.55720000000002,116.7352,1359.5077999999999,345.42719999999997,10.0,0.0,hotmail
949,950,Foster Gusikowski,TX,33.9081,-100.911,Organic,2801,58,,,,,,,yahoo
950,951,Elsie Sanford,OK,35.3604,-99.5278,Facebook,2315,54,,,,,,,gmail
951,952,Joel Wyman,IA,41.0398,-93.7258,Organic,2912,38,,,,,,,yahoo
952,953,Rowan Weimann,TX,31.2833,-97.9102,Facebook,2125,49,1135.517,511.5206,131.9694,0.0,9.0,0.1111111111111111,yahoo
953,954,Keyshawn Weimann,AL,33.9035,-85.635,Organic,2806,37,547.5155,153.1001,128.547,375.5941,6.0,0.0,hotmail
